locationID,AQSID,locationName,longitude,latitude,elevation,countryCode,stateCode,countyName,timezone,houseNumber,street,city,zip,airnow_parameterName,airnow_siteCode,airnow_status,airnow_agencyID,airnow_agencyName,airnow_EPARegion,airnow_GMTOffsetHours,airnow_FIPSMSACode,airnow_MSAName,address
ff93e44a39b72bc9,480290055,CPS Pecan Valley C678,-98.4311,29.4072,189.1,US,TX,Bexar,America/Chicago,973,H Street,San Antonio,78220,PM2.5,0055,Inactive,TX1,Texas Commission on Environmental Quality,R6,-6,41700,"San Antonio, TX","973 H Street, San Antonio, TX 78220, United States of America"
f6b4431a3529dad4,311090022,LLCHD BAM,-96.675733,40.812558,374.19,US,NE,Lancaster,America/Chicago,3159,N Street,Lincoln,68510,PM2.5,0022,Active,NE4,Lincoln-Lancaster County Health Department,R7,-6,30700,"Lincoln, NE","3159 N Street, Lincoln, NE 68510, United States of America"
103acd92f08f8fe4,080350004,Chatfield Park - 11500 N. Roxborough Park Rd.,-105.07,39.5339,1571.1,US,CO,Douglas,America/Denver,NA,Chatfield Internal Trail,NA,80125,PM2.5,0004,Active,CO1,Colorado Department of Public Health and Environment,R8,-7,19740,"Denver-Aurora, CO","Deer Creek Pit, Chatfield Internal Trail, Douglas County, CO 80125, United States of America"
a43d3d552e128bf3,840310790005,Grand Island DOT,-98.378889,40.918333,573.1,US,NE,Hall,America/Chicago,208,North Webb Road,Grand Island,68803,PM2.5,0790,Active,NE1,Nebraska Department of Environment and Energy,R7,-6,24260,"Grand Island, NE","208 North Webb Road, Grand Island, NE 68803, United States of America"
8f16b16a0443f809,482010416,Houston Park Place C416,-95.294724,29.68639,9.2,US,TX,Harris,America/Chicago,7372,Kingsley Street,Houston,77087,PM2.5,0416,Active,TX1,Texas Commission on Environmental Quality,R6,-6,26420,"Houston-Sugar Land-Baytown, TX","7372 Kingsley Street, Golfcrest, Houston, TX 77087, United States of America"
7c8794deca8111d0,490571003,Harrisville,-111.988297,41.302799,1339.6,US,UT,Weber,America/Denver,2501,North 500 West,NA,84414,PM2.5,1003,Active,UT1,Utah Department of Environmental Quality,R8,-7,36260,"Ogden-Clearfield, UT","2501 North 500 West, Harrisville, Weber County, UT 84414, United States of America"
b7aeb59ac1f0a49e,000090701,Athabasca Valley,-111.39,56.7328,0,CA,AB,Wood Buffalo,America/Edmonton,NA,MacDonald Drive,Fort McMurray,T9H 4A4,PM2.5,0701,Active,AB1,Alberta Environmental Monitoring and Reporting Agency (AEMERA),CA,-7,NA,NA,"MacDonald Drive, Fort McMurray, AB T9H 4A4, Canada"
05b2762b8e177f68,480430101,Big Bend  NP,-103.178101,29.3025,1052.3,US,TX,Brewster,America/Chicago,NA,Chihuahuan Desert Research Station Road,NA,79834,PM2.5,0101,Active,NPS,National Park Service,USEPA,-6,NA,NA,"Chihuahuan Desert Research Station Road, Brewster County, TX 79834, United States of America"
d99194af7a11793f,060679991,Rancho Seco,-121.109977,38.343812,68,US,CA,Sacramento,America/Los_Angeles,NA,Rancho Seco Park,NA,NA,PM2.5,9991,Inactive,CA1,Sacramento Metro. AQMD,R9,-8,40900,"Sacramento--Arden-Arcade--Roseville, CA","Rancho Seco Park, Sacramento County, CA, United States of America"
c6a2402081df5b54,230190002,Bangor KPS,-68.769676,44.798859,4.93,US,ME,Penobscot,America/New_York,1,Washington Street,Bangor,04401,PM2.5,0002,Inactive,ME1,Maine Dept. of Environmental Protection,R1,-5,12620,"Bangor, ME","1 Washington Street, Bangor, ME 04401, United States of America"
8c27cd75aa1f9c9b,80011G001,Estación Seguridad Pública,-100.81591,20.518317,498.1,MX,GUA,Celaya,America/Mexico_City,143A,Calle Pípila,Celaya,38000,PM2.5,G001,Active,IEG,Secretaría de Medio Ambiente y Ordenamiento Territorial,MX,-6,NA,NA,"Calle Pípila 143A, El Dorado, 38000 Celaya, GUA, Mexico"
c1ad51626ffd4414,840530739992,Maple Falls-Azure Way,-122.1471,48.9477,152.79,US,WA,Whatcom,America/Los_Angeles,6237,Azure Way,NA,98266,PM2.5,0739,Active,WA1,Washington Department of Ecology,R10,-8,NA,NA,"6237 Azure Way, Whatcom County, WA 98266, United States of America"
d1e45e4d3b331ba3,530579999,Anacortes-Bartholomew Rd (US),-122.559998,48.465401,9.8,US,WA,Skagit,America/Los_Angeles,12383,Bartholomew Road,NA,98221,PM2.5,9999,Active,WA1,Washington Department of Ecology,R10,-8,NA,NA,"12383 Bartholomew Road, Skagit County, WA 98221, United States of America"
e440ca77f59663d0,CC0050109,Duncan,-73.663913,45.502648,0,CA,QC,Urban agglomeration of Montreal,America/Toronto,2445,Chemin Duncan,Mount Royal,H4P 2A2,PM2.5,0109,Active,QC2,Canada-Quebec2,CA,-5,NA,NA,"2445 Chemin Duncan, Mount Royal, QC H4P 2A2, Canada"
f967e94c9bc679b0,410591003,Hermiston - Municipal Airport,-119.262991,45.828968,194,US,OR,Umatilla,America/Los_Angeles,NA,Airport Way,Hermiston,97838,PM2.5,1003,Active,OR1,Oregon Dept. of Environmental Quality,R10,-8,37820,"Pendleton-Hermiston, OR","Hermiston Municipal Airport, Airport Way, Hermiston, OR 97838, United States of America"
5034397ad4038152,270530969,Minneapolis - Wenonah School,-93.238297,44.9006,257.1,US,MN,Hennepin,America/Chicago,5625,23rd Avenue South,Minneapolis,55417,PM2.5,0969,Inactive,MN1,Minnesota Pollution Control Agency,R5,-6,33460,"Minneapolis-St. Paul-Bloomington, MN-WI","5625 23rd Avenue South, Minneapolis, MN 55417, United States of America"
c9fe9c3c096b858a,060531003,Salinas AMS,-121.623271,36.694261,10.1,US,CA,Monterey,America/Los_Angeles,NA,Constitution Boulevard,Salinas,93905-4612,PM2.5,1003,Active,MON,Monterey Bay Unified APCD,R9,-8,41500,"Salinas, CA","Monterey County Parks and Flood Control Office, Constitution Boulevard, Salinas, CA 93905-4612, United States of America"
3858898d0bfd9a5c,360810120,Maspeth,-73.8933,40.7269,30.63,US,NY,Queens,America/New_York,69-64,Grand Avenue,New York,11378,PM2.5,0120,Active,NY1,New York Dept. of Environmental Conservation,R2,-5,35620,"New York-Northern New Jersey-Long Island, NY-NJ-PA","69-64 Grand Avenue, New York, NY 11378, United States of America"
053a5a8f35a26e84,060539983,Presidio of Monterey,-121.898879,36.606912,40.68,US,CA,Monterey,America/Los_Angeles,NA,Corporal Ewing Road,Monterey,93944,PM2.5,9983,Inactive,MON,Monterey Bay Unified APCD,R9,-8,NA,NA,"Corporal Ewing Road, Monterey, CA 93944, United States of America"
9f561c41fcf08ea3,210130002,MIDAIR,-83.7369,36.6081,347.35,US,KY,Bell,America/New_York,NA,unnamed road,Middlesboro,42965,PM2.5,0002,Active,KY1,Kentucky DEP,R4,-5,33180,"Middlesborough, KY","unnamed road, Middlesborough, KY 42965, United States of America"
5bbfab54e60b3ff4,060539997,Manzanita,-121.827594,36.613169,72.6,US,CA,Monterey,America/Los_Angeles,1720,Yosemite Street,Seaside,93955,PM2.5,9997,Inactive,MON,Monterey Bay Unified APCD,R9,-8,41500,"Salinas, CA","International School of Monterey, 1720 Yosemite Street, Del Monte Heights, Seaside, CA 93955, United States of America"
70f098f12e7b30d6,060539982,MPWMD,-121.816645,36.620125,107.16,US,CA,Monterey,America/Los_Angeles,NA,General Jim Moore Boulevard,Seaside,93955,PM2.5,9982,Inactive,MON,Monterey Bay Unified APCD,R9,-8,NA,NA,"General Jim Moore Boulevard, Del Monte Heights, Seaside, CA 93955, United States of America"
d774ca1b290de46e,240290002,Millington,-75.797203,39.305199,22.3,US,MD,Kent,America/New_York,NA,Maryland Line Road,NA,21650,PM2.5,0002,Active,MD1,Maryland Department of the Environment,R3,-5,NA,NA,"Millington Wildlife Management Area, Maryland Line Road, Kent County, MD 21650, United States of America"
fd5dec442c98baf5,060074001,Gridley,-121.66881,39.32756,26.8,US,CA,Butte,America/Los_Angeles,620,Cowee Avenue,NA,95948,PM2.5,4001,Active,CA8,California Air Resources Board,R9,-8,17020,"Chico, CA","620 Cowee Avenue, Butte County, CA 95948, United States of America"
588c428ae94798bc,391530017,East HS,-81.468956,41.063526,319.41,US,OH,Summit,America/New_York,NA,Ruckel Road,Akron,44305,PM2.5,0017,Active,OH1,Ohio EPA-DAPC,R5,-5,10420,"Akron, OH","East High School, Ruckel Road, Akron, OH 44305, United States of America"
ddc4a20a2a1218dd,180030004,Fort Wayne-Beacon St,-85.101816,41.094965,232.1,US,IN,Allen,America/Indiana/Indianapolis,2918,Forest Avenue,Fort Wayne,46805,PM2.5,0004,Inactive,IN4,Indiana Dept. of Environmental Management,R5,-5,23060,"Fort Wayne, IN","2918 Forest Avenue, Fort Wayne, IN 46805, United States of America"
aeb341714bbdf60f,360870005,Rockland Cty,-74.028191,41.182079,140,US,NY,Rockland,America/New_York,27,South Mountain Road,NA,10970,PM2.5,0005,Active,NY1,New York Dept. of Environmental Conservation,R2,-5,NA,NA,"27 South Mountain Road, Centenary, Ramapo, NY 10970, United States of America"
9ccbdd3235bbf817,490570002,Ogden #2,-111.975197,41.206402,1324.6,US,UT,Weber,America/Denver,NA,32nd Street,Ogden,84403,PM2.5,0002,Inactive,UT1,Utah Department of Environmental Quality,R8,-7,36260,"Ogden-Clearfield, UT","Pingree School, 32nd Street, Ogden, UT 84403, United States of America"
982bdbc1c2aed3f5,840420810419,Salladasburg,-77.230933,41.266192,190.12,US,PA,Lycoming,America/New_York,3236,PA 287,NA,17740,PM2.5,0810,Active,PA1,Pennsylvania Dept. of Environmental Protection,R3,-5,NA,NA,"3236 PA 287, Larryville, Lycoming County, PA 17740, United States of America"
9b79e9729adcd257,840560010012,Laramie SLAMS,-105.549137,41.308825,2196,US,WY,Albany,America/Denver,NA,East Grand Avenue,Laramie,82072,PM2.5,0010,Active,WY1,Wyoming Department of Environmental Quality,R8,-7,29660,"Laramie, WY","East Grand Avenue, Laramie, WY 82072, United States of America"
005afb7b5c0556d5,000020401,SOUTHAMPTON,-62.5828,46.3864,15.3,CA,PE,Kings,America/Halifax,NA,Cardigan Road,St. Peters Bay,C0A 2A0,PM2.5,0401,Active,CN1,Environment Canada,CA,-4,NA,NA,"Cardigan Road, St. Peters Bay, PE C0A 2A0, Canada"
9f7aa65d9fbfa927,300490018,LINSCHL,-112.0353,46.6036,1200.8,US,MT,Lewis and Clark,America/Denver,NA,Bishop Carroll Drive,Helena,59624,PM2.5,0018,Inactive,MT1,Montana DEQ,R8,-7,25740,"Helena, MT","Helena Solid Waste Department, Bishop Carroll Drive, Helena, MT 59624, United States of America"
53adf0bdb9e18fd3,300630024,Missoula Boyd Park,-114.020549,46.842297,969.31,US,MT,Missoula,America/Denver,NA,Washburn Street,Missoula,59801,PM2.5,0024,Active,MT1,Montana DEQ,R8,-7,NA,NA,"Washburn Street, Missoula, MT 59801, United States of America"
e50b9945708fd7cc,000053601,Notre-Dame-du-Rosaire,-70.4528,46.8508,421.8,CA,QC,Montmagny (MRC),America/Toronto,247,Rang Saint-Louis,NA,NA,PM2.5,3601,Active,QC1,Canada-Quebec1,CA,-5,NA,NA,"247 Rang Saint-Louis, Notre-Dame-du-Rosaire, QC, Canada"
37073c5d746205e0,270052013,Detroit Lakes,-95.8467,46.8511,416.63,US,MN,Becker,America/Chicago,1732,North Tower Road,Detroit Lakes,56501,PM2.5,2013,Active,MN1,Minnesota Pollution Control Agency,R5,-6,NA,NA,"Detroit Lakes Wetland Management District Headquarters, 1732 North Tower Road, Detroit Lakes, MN 56501, United States of America"
db6a0a42b780843b,220570004,Thibodaux,-90.7653,29.7639,1.5,US,LA,Lafourche Parish,America/Chicago,107,Thoroughbred Park Drive,NA,70301,PM2.5,0004,Active,LA1,Louisiana Department of Environmental Quality,R6,-6,26380,"Houma-Bayou Cane-Thibodaux, LA","107 Thoroughbred Park Drive, Lafourche, Lafourche Parish, LA 70301, United States of America"
9c4f29229c955d57,490110004,BV,-111.885498,40.897999,1314.49,US,UT,Davis,America/Denver,NA,North 200 West,Bountiful,84014,PM2.5,0004,Active,UT1,Utah Department of Environmental Quality,R8,-7,36260,"Ogden-Clearfield, UT","200 W @ 923 N, North 200 West, Bountiful, UT 84014, United States of America"
f272ad7bb96df881,121152002,Jackson Road,-82.3625,27.0892,3.89,US,FL,Sarasota,America/New_York,NA,Jackson Road,NA,34292,PM2.5,2002,Active,FL1,Florida Dept. of Environmental Protection,R4,-5,42260,"Sarasota-Bradenton-Venice, FL","Jackson Road, Sarasota County, FL 34292, United States of America"
4ac23b256a938859,191530030,CARPENTER,-93.643303,41.6031,282.1,US,IA,Polk,America/Chicago,1907,Carpenter Avenue,Des Moines,50314,PM2.5,0030,Active,IA2,Polk Co. Air Quality Division,R7,-6,19780,"Des Moines, IA","Polk County Health Department, 1907 Carpenter Avenue, Des Moines, IA 50314, United States of America"
c95e2f32a21f8097,420150011,Towanda,-76.512726,41.705226,340.1,US,PA,Bradford,America/New_York,NA,PA 414,NA,18832,PM2.5,0011,Active,PA1,Pennsylvania Dept. of Environmental Protection,R3,-5,NA,NA,"Monroe Franklin Elementary School (closed), PA 414, Canton, Bradford County, PA 18832, United States of America"
a4bef09337476c69,471570075,SHELBY FARMS,-89.85022,35.151588,87.5,US,TN,Shelby,America/Chicago,NA,Haley Road,Memphis,38134,PM2.5,0075,Active,TN3,Shelby County Health Department,R4,-6,32820,"Memphis, TN-MS-AR","Haley Road, Shelby Farms, Memphis, TN 38134, United States of America"
3f1e6dd0ed3ca0b1,530710005,Walla Walla-12th St,-118.3514,46.0588,266.9,US,WA,Walla Walla,America/Los_Angeles,NA,South 12th Avenue,Walla Walla,99362-5024,PM2.5,0005,Active,WA1,Washington Department of Ecology,R10,-8,47460,"Walla Walla, WA","Walla Walla Fire District Station 1, South 12th Avenue, Walla Walla, WA 99362-5024, United States of America"
2047e125fb02b98f,530270011,Taholah-Quinault Tribe,-124.291801,47.339802,13.7,US,WA,Grays Harbor,America/Los_Angeles,NA,Seagate Road,NA,98587,PM2.5,0011,Active,WA1,Washington Department of Ecology,R10,-8,10140,"Aberdeen, WA","Seagate Road, Taholah, Grays Harbor County, WA 98587, United States of America"
6448fa2e943b0d09,840530390006,Mobile-White Salmon,-121.488398,45.735931,271.05,US,WA,Klickitat,America/Los_Angeles,186,Northwest Spring Street,NA,98672,PM2.5,0390,Inactive,WA1,Washington Department of Ecology,R10,-8,NA,NA,"186 Northwest Spring Street, White Salmon, Klickitat County, WA 98672, United States of America"
ed4f92dbf2a98402,840MM0230001,Pomeroy,-117.614764,46.474438,550.24,US,WA,Garfield,America/Los_Angeles,NA,Pataha Street,Pomeroy,99347,PM2.5,0230,Inactive,WA1,Washington Department of Ecology,R10,-8,NA,NA,"Pataha Street, Pomeroy, WA 99347, United States of America"
7ad167363161f3b5,410370001,Lakeview - Center & M,-120.353969,42.189215,1445.7,US,OR,Lake,America/Los_Angeles,1223,Center Street,NA,97630,PM2.5,0001,Active,OR1,Oregon Dept. of Environmental Quality,R10,-8,NA,NA,"1223 Center Street, Lakeview, Lake County, OR 97630, United States of America"
20d6b00818c2fadb,410190002,Roseburg - Garden Valley Blvd.,-123.36479,43.2266,144.58,US,OR,Douglas,America/Los_Angeles,NA,Northwest Garden Valley Boulevard,Roseburg,97471,PM2.5,0002,Active,OR1,Oregon Dept. of Environmental Quality,R10,-8,40700,"Roseburg, OR","Bureau of Land Management Roseburg District Office, Northwest Garden Valley Boulevard, Roseburg, OR 97471, United States of America"
a9c5ff5ab0bada69,060731014,Otay Mesa - Donovan,-116.929486,32.579361,184.8,US,CA,San Diego,America/Los_Angeles,NA,Donovan State Prison Road,NA,92179,PM2.5,1014,Active,CA4,San Diego APCD,R9,-8,41740,"San Diego-Carlsbad-San Marcos, CA","Donovan State Prison Road, San Diego County, CA 92179, United States of America"
5382df88cf5e91d3,840410510032,Portland Lane Middle School,-122.60147,45.47142,76.9,US,OR,Multnomah,America/Los_Angeles,7200,Southeast 60th Avenue,Portland,97206,PM2.5,0510,Active,OR1,Oregon Dept. of Environmental Quality,R10,-8,NA,NA,"7200 Southeast 60th Avenue, Portland, OR 97206, United States of America"
feda23a3233e4d95,060192016,Fresno-Foundry Park,-119.77743,36.71088,86.17,US,CA,Fresno,America/Los_Angeles,NA,CA 99,Fresno,93721,PM2.5,2016,Active,CA6,San Joaquin Valley Unified APCD,R9,-8,23420,"Fresno, CA","CA 99, Fresno, CA 93721, United States of America"
ab7a3ab4ba1dc902,170434002,Naperville,-88.1522,41.7714,202.06,US,IL,DuPage,America/Chicago,NA,Riverwalk,Naperville,60540,PM2.5,4002,Active,IL1,Illinois EPA,R5,-6,16980,"Chicago-Naperville-Joliet, IL-IN-WI","Shannower 9/11 Memorial, Water Street, Riverwalk, Naperville, IL 60540, United States of America"
487bc42a5ab8f5b0,160551010,Athol Neph,-116.710897,47.949025,726.59,US,ID,Kootenai,America/Los_Angeles,5517,East Grove Avenue,NA,83801,PM2.5,1010,Inactive,ID1,Idaho Department of Environmental Quality,R10,-8,NA,NA,"5517 East Grove Avenue, Athol, Kootenai County, ID 83801, United States of America"
575243c65b9e4719,160690012,Lewiston,-116.991402,46.408501,291.29,US,ID,Nez Perce,America/Los_Angeles,1149,29th Street,Lewiston,83501,PM2.5,0012,Active,ID1,Idaho Department of Environmental Quality,R10,-8,30300,"Lewiston, ID-WA","1149 29th Street, Lewiston, ID 83501, United States of America"
fe6d1145f37b00c3,000101301,Langley,-122.56694,49.09556,82,CA,BC,Metro Vancouver Regional District,America/Vancouver,NA,52 Avenue,Township of Langley,V2Z 2P7,PM2.5,1301,Active,BC2,Metro Vancouver,CA,-8,NA,NA,"DW Poppy Secondary School, 52 Avenue, Township of Langley, BC V2Z 2P7, Canada"
8ca91d2521b701d4,060670010,Downtown Sacramento - T Street,-121.49311,38.56844,5.06,US,CA,Sacramento,America/Los_Angeles,NA,Solons Alley,Sacramento,95818,PM2.5,0010,Active,CA8,California Air Resources Board,R9,-8,40900,"Sacramento--Arden-Arcade--Roseville, CA","Solons Alley, Sacramento, CA 95818, United States of America"
d3d711cb14ea057b,800090101,Pedregal,-99.2041,19.3251,2327.5,MX,NA,NA,America/Mexico_City,NA,Calle Cañada,Mexico City,01900,PM2.5,0101,Active,MXC,Red de Monitoreo de la Calidad del Aire de la Ciudad de Mexico,MX,-6,NA,NA,"Calle Cañada, Colonia Jardines del Pedregal, 01900 Mexico City, Mexico"
02c665c394e93fe3,461270002,UC2,-96.747425,42.850975,376.71,US,SD,Union,America/Chicago,31389,473rd Avenue,NA,57025,PM2.5,0002,Inactive,SD1,South Dakota Department of Agriculture and Natural Resources,R8,-6,NA,NA,"31389 473rd Avenue, Spink, Union County, SD 57025, United States of America"
e27d31212fa99351,460650003,Pierre,-100.287269,44.373786,523.47,US,SD,Hughes,America/Chicago,NA,Airport Road,Pierre,57501,PM2.5,0003,Active,SD1,South Dakota Department of Agriculture and Natural Resources,R8,-6,NA,NA,"Airport Road, Pierre, SD 57501, United States of America"
efa672041013c5a0,483091037,Waco C1037,-97.0706,31.6531,140.3,US,TX,McLennan,America/Chicago,NA,Mazanec Road,Waco,76640,PM2.5,1037,Active,TX1,Texas Commission on Environmental Quality,R6,-6,47380,"Waco, TX","Mazanec Road, Waco, TX 76640, United States of America"
06c49bc4a5551ec5,000040901,ST ANDREWS,-67.0786,45.0892,37.4,CA,NB,Charlotte,America/Moncton,NA,Lower Campus Road,Saint Andrews,E5B 2J7,PM2.5,0901,Active,CN1,Environment Canada,CA,-4,NA,NA,"Huntsman Marine Science Centre (Lower Campus), Lower Campus Road, Town of Saint Andrews, NB E5B 2J7, Canada"
33a1cb93ed150d53,840530330089,Auburn M St SE,-122.2144,47.2875,4,US,WA,King,America/Los_Angeles,NA,25th Street Southeast,Auburn,98002,PM2.5,0330,Inactive,WA1,Washington Department of Ecology,R10,-8,42660,"Seattle-Tacoma-Bellevue, WA","Pioneer Elementary School, 25th Street Southeast, Auburn, WA 98002, United States of America"
089a067f92712ad1,530750003,Pullman-Dexter Ave,-117.1801,46.7245,771.3,US,WA,Whitman,America/Los_Angeles,NA,Southeast Dexter Street,Pullman,99164-1912,PM2.5,0003,Active,WA1,Washington Department of Ecology,R10,-8,39420,"Pullman, WA","Franklin Elementary School, Southeast Dexter Street, Pullman, WA 99164-1912, United States of America"
48ff86b963def74a,530090015,Neah Bay 2-Makah Tribe,-124.610046,48.366058,0.3,US,WA,Clallam,America/Los_Angeles,NA,Bayview Avenue,Neah Bay,98357,PM2.5,0015,Active,WA1,Washington Department of Ecology,R10,-8,38820,"Port Angeles, WA","Makah Marina, Bayview Avenue, Neah Bay, WA 98357, United States of America"
cdee815a39e82336,840410352222,Chiloquin Fire Dept,-121.862767,42.575374,1279.32,US,OR,Klamath,America/Los_Angeles,NA,South 2nd Avenue,NA,NA,PM2.5,0352,Inactive,OR1,Oregon Dept. of Environmental Quality,R10,-8,NA,NA,"Chiloquin Fire Department, South 2nd Avenue, Chiloquin, Klamath County, OR, United States of America"
0a9604695e004216,410090004,Portland - Sauvie Island,-122.7721,45.768531,5.86,US,OR,Columbia,America/Los_Angeles,NA,Reeder Road,NA,NA,PM2.5,0004,Active,OR1,Oregon Dept. of Environmental Quality,R10,-8,38900,"Portland-Vancouver-Beaverton, OR-WA","Reeder Road, Columbia County, OR, United States of America"
68a21258a8e9077a,410510080,Portland - SE Lafayette,-122.602877,45.496641,75,US,OR,Multnomah,America/Los_Angeles,5824,Southeast Lafayette Street,Portland,97206,PM2.5,0080,Active,OR1,Oregon Dept. of Environmental Quality,R10,-8,38900,"Portland-Vancouver-Beaverton, OR-WA","5824 Southeast Lafayette Street, Portland, OR 97206, United States of America"
74627b16b8cad490,840560391006,Jackson SLAMS,-110.797994,43.457764,1902.3,US,WY,Teton,America/Denver,1910,High School Road,Jackson,83001,PM2.5,0391,Active,WY1,Wyoming Department of Environmental Quality,R8,-7,27220,"Jackson, WY-ID","Jackson Hole High School, 1910 High School Road, Jackson, WY 83001, United States of America"
331a36c5b90f5990,350011013,North Valley,-106.603897,35.187801,1524.1,US,NM,Bernalillo,America/Denver,NA,Northern Diversion Trail,Albuquerque,87113-2321,PM2.5,1013,Active,NM2,Albuquerque Environmental Health Department,R6,-7,10740,"Albuquerque, NM","Northern Diversion Trail, Albuquerque, NM 87113-2321, United States of America"
e8f98ea69c1a4ed8,060192008,Huron,-120.0991,36.1994,112.34,US,CA,Fresno,America/Los_Angeles,16715,4th Street,Huron,93234,PM2.5,2008,Active,CA6,San Joaquin Valley Unified APCD,R9,-8,NA,NA,"16715 4th Street, Huron, CA 93234, United States of America"
13b7e67d9a5ced7c,240190004,Horn Point,-76.1408,38.5876,2.7,US,MD,Dorchester,America/New_York,NA,Horns Point Road,NA,21613,PM2.5,0004,Active,MD1,Maryland Department of the Environment,R3,-5,NA,NA,"Horn Point Airport, Horns Point Road, Whiteley, Dorchester County, MD 21613, United States of America"
8d24d28f77034d07,340392003,Rahway PM,-74.276176,40.603943,2.7,US,NJ,Union,America/New_York,NA,East Emerson Avenue,Rahway,07065,PM2.5,2003,Active,NJ1,New Jersey Dept. of Environmental Protection,R2,-5,35620,"New York-Northern New Jersey-Long Island, NY-NJ-PA","Rahway Fire Department Headquarters, East Emerson Avenue, Glendinning Homes, Rahway, NJ 07065, United States of America"
7e2d26803c47b261,340390004,Elizabeth Trailer,-74.208366,40.641441,4.9,US,NJ,Union,America/New_York,NA,I 278,Elizabeth,07202-3872,PM2.5,0004,Active,NJ1,New Jersey Dept. of Environmental Protection,R2,-5,35620,"New York-Northern New Jersey-Long Island, NY-NJ-PA","I 278, Elizabeth, NJ 07202-3872, United States of America"
3cf38c450135e594,061050002,Weaverville,-122.941109,40.734722,600.2,US,CA,Trinity,America/Los_Angeles,NA,Garden Gulch Street,Weaverville,NA,PM2.5,0002,Active,NCA,North Coast Unified Air Quality Management District,R9,-8,NA,NA,"Trinity County Law Library, Garden Gulch Street, Weaverville, CA, United States of America"
9f9385f1c31f5e3d,360590005,Eisenhower Park,-73.5869,40.7447,24.9,US,NY,Nassau,America/New_York,829,Merrick Avenue North,Westbury,11590,PM2.5,0005,Active,NY1,New York Dept. of Environmental Conservation,R2,-5,35620,"New York-Northern New Jersey-Long Island, NY-NJ-PA","829 Merrick Avenue North, Westbury, NY 11590, United States of America"
bc35ed0d07fd9ca2,160590004,Salmon PM2.5,-113.890285,45.181907,1200.2,US,ID,Lemhi,America/Boise,NA,North Saint Charles Street,Salmon,83467,PM2.5,0004,Active,ID1,Idaho Department of Environmental Quality,R10,-7,NA,NA,"North Saint Charles Street, West Salmon, Salmon, ID 83467, United States of America"
692afd67f174e3e9,410610121,Mt Fanny,-117.733582,45.309556,2175.3,US,OR,Union,America/Los_Angeles,NA,unnamed road,NA,NA,PM2.5,0121,Inactive,OR1,Oregon Dept. of Environmental Quality,R10,-8,NA,NA,"unnamed road, Union County, OR, United States of America"
3f625185eaa88e44,CC0050126,Sainte-Anne-de-Bellevue,-73.928944,45.426509,0,CA,QC,Urban agglomeration of Montreal,America/Toronto,NA,Chemin Sainte-Marie,Sainte-Anne-de-Bellevue,H9X 3Y7,PM2.5,0126,Active,QC2,Canada-Quebec2,CA,-5,NA,NA,"Emile A. Lods Agronomy Research Centre, Chemin Sainte-Marie, Sainte-Anne-de-Bellevue, QC H9X 3Y7, Canada"
bad2fb893d28cdfa,300750001,Broadus,-105.37028,45.440295,934.9,US,MT,Powder River,America/Denver,NA,Big Powder River East Road,NA,59317,PM2.5,0001,Active,MT1,Montana DEQ,R8,-7,NA,NA,"Big Powder River East Road, Powder River County, MT 59317, United States of America"
ed5bd93f36e83c28,530610011,Tulalip-Reuben Shelton,-122.275,48.069,11.9,US,WA,Snohomish,America/Los_Angeles,8014,Water Works Road,NA,98271,PM2.5,0011,Inactive,WA1,Washington Department of Ecology,R10,-8,NA,NA,"8014 Water Works Road, Snohomish County, WA 98271, United States of America"
df6c508a5d8befb0,530090017,Port Angeles-E 5th St,-123.436434,48.115,75,US,WA,Clallam,America/Los_Angeles,NA,East 5th Street,Port Angeles,98362,PM2.5,0017,Active,WA1,Washington Department of Ecology,R10,-8,NA,NA,"Clallam County Fire District 2 Station, East 5th Street, Port Angeles, WA 98362, United States of America"
8ac8ff0b028d1e11,530650005,Colville-E 1st St,-117.903222,48.54469,488.3,US,WA,Stevens,America/Los_Angeles,NA,East 1st Avenue,Colville,99114,PM2.5,0005,Active,WA1,Washington Department of Ecology,R10,-8,NA,NA,"Stevens County Fire District #3, East 1st Avenue, Colville, WA 99114, United States of America"
d12be214361c539d,380130004,Lostwood NWR,-102.402199,48.641899,696.3,US,ND,Burke,America/Chicago,NA,NA,NA,NA,PM2.5,0004,Active,ND1,North Dakota Department of Environmental Quality,R8,-6,NA,NA,"Burke County, North Dakota, United States of America"
9d77971a46a76bf1,80039SE02,Juarez,-100.09556,25.64611,118,MX,NLE,Juárez,America/Monterrey,NA,General Lázaro Garza Ayala,Benito Juárez,67262,PM2.5,SE02,Active,SMA,Sistema Integral de Monitoreo Ambiental,MX,-6,NA,NA,"General Lázaro Garza Ayala, Joaquín Garza y Garza, 67262 Benito Juárez, NLE, Mexico"
10c34f29096856e3,480610006,Brownsville C80,-97.4936,25.8925,6.1,US,TX,Cameron,America/Chicago,343,Ringgold Road,Brownsville,78520,PM2.5,0006,Active,TX1,Texas Commission on Environmental Quality,R6,-6,15180,"Brownsville-Harlingen, TX","Brownsville Early College High School, 343 Ringgold Road, Brownsville, TX 78520, United States of America"
f292baacd4e95703,120111002,DAVIE,-80.2408,26.085,1.11,US,FL,Broward,America/New_York,NA,Southwest 30th Street,Pembroke Pines,33328,PM2.5,1002,Inactive,FL2,Broward County Natural Resources Division,R4,-5,33100,"Miami-Fort Lauderdale-Miami Beach, FL","University of Florida Fort Lauderdale Research and Education Center, Southwest 30th Street, Pembroke Pines, FL 33328, United States of America"
73c648b20e722712,484790313,Laredo C313,-99.5333,27.5994,390.4,US,TX,Webb,America/Chicago,NA,Frontage Road,Laredo,78045,PM2.5,0313,Active,TX1,Texas Commission on Environmental Quality,R6,-6,29700,"Laredo, TX","Frontage Road, Laredo, TX 78045, United States of America"
85515654c9fdafab,080310027,I25 Denver,-105.015313,39.732144,1588.7,US,CO,NA,America/Denver,970,Yuma Street,City and County of Denver,80204,PM2.5,0027,Active,CO1,Colorado Department of Public Health and Environment,R8,-7,19740,"Denver-Aurora, CO","970 Yuma Street, City and County of Denver, CO 80204, United States of America"
930a2f92f05ba913,840421310010,Tunkhannock,-75.95774,41.605244,362.92,US,PA,Wyoming,America/New_York,NA,Baker Road,NA,18657,PM2.5,1310,Active,PA1,Pennsylvania Dept. of Environmental Protection,R3,-5,NA,NA,"Baker Road, Lemon, Wyoming County, PA 18657, United States of America"
0e7c98847ad0f8e0,191032001,"Iowa City, Hoover School",-91.503471,41.658195,224.65,US,IA,Johnson,America/Chicago,NA,Court Street,Iowa City,52245,PM2.5,2001,Active,IA1,Iowa DNR,R7,-6,26980,"Iowa City, IA","Iowa City High School, Court Street, Iowa City, IA 52245, United States of America"
c84d8008f96e8f3f,550270001,Horicon Wildlife Area,-88.621109,43.46611,286.4,US,WI,Dodge,America/Chicago,NA,North Palmatory Street,NA,53032,PM2.5,0001,Active,WI1,Wisconsin Dept. of Natural Resources,R5,-6,NA,NA,"North Palmatory Street, Horicon, Kekoskee, WI 53032, United States of America"
5e1df942c1566209,840560170002,Thermopolis Mobile BAM,-108.218095,43.627929,1321,US,WY,Hot Springs,America/Denver,NA,US 20;WY 789,NA,82443,PM2.5,0170,Inactive,WY1,Wyoming Department of Environmental Quality,R8,-7,NA,NA,"Wyoming Driver License, US 20;WY 789, Hot Springs County, WY 82443, United States of America"
e5bed837795d0e21,330090010,Lebanon,-72.309499,43.629605,178.1,US,NH,Grafton,America/New_York,NA,Airport Road,Lebanon,03784,PM2.5,0010,Active,NH1,New Hampshire Dept. of Environmental Services,R1,-5,30100,"Lebanon, NH-VT","North Ramp General Aviation Apron, Airport Road, Lebanon, NH 03784, United States of America"
2e0ff7acb515315b,160010011,Boise Mtn View School,-116.270302,43.636101,821.24,US,ID,Ada,America/Boise,3500,West Kingston Drive,Boise,83704,PM2.5,0011,Inactive,ID1,Idaho Department of Environmental Quality,R10,-7,14260,"Boise City-Nampa, ID","Mountain View Elementary School, West Kingston Drive, Boise, ID 83704, United States of America"
9dba0629b89dc0d0,550630012,LACROSSE DOT,-91.225,43.7781,209.8,US,WI,La Crosse,America/Chicago,NA,20th Street South,La Crosse,54601,PM2.5,0012,Active,WI1,Wisconsin Dept. of Natural Resources,R5,-6,29100,"La Crosse, WI-MN","20th Street South, Herrington, La Crosse, WI 54601, United States of America"
5b44d83a0810c7db,530251002,Moses Lake-Balsam St,-119.2726,47.1303,99.1,US,WA,Grant,America/Los_Angeles,NA,South Chestnut Street,Moses Lake,98837,PM2.5,1002,Active,WA1,Washington Department of Ecology,R10,-8,34180,"Moses Lake, WA","HAPO Credit Union, South Chestnut Street, Moses Lake, WA 98837, United States of America"
22d9486f3744dc0e,380650002,Hannover,-101.4281,47.1858,697.2,US,ND,Oliver,America/North_Dakota/Center,NA,State Highway 31,NA,NA,PM2.5,0002,Active,ND1,North Dakota Department of Environmental Quality,R8,-6,NA,NA,"State Highway 31, Hannover, Oliver County, ND, United States of America"
5e19b90e89cb7726,840MM0510181,Newport_Mobile,-120.958142,47.197416,617.82,US,WA,Kittitas,America/Los_Angeles,NA,Douglas Munro Boulevard,Cle Elum,98943,PM2.5,0510,Inactive,WA1,Washington Department of Ecology,R10,-8,NA,NA,"Douglas Munro Boulevard, Cle Elum, WA 98943, United States of America"
46a1c2aa2db4f5cd,380250003,Dunn Center,-102.526398,47.320301,683.2,US,ND,Dunn,America/Denver,NA,NA,NA,NA,PM2.5,0003,Inactive,ND1,North Dakota Department of Environmental Quality,R8,-7,NA,NA,"Dunn County, North Dakota, United States of America"
6ab6febe39d81f3d,MMMT10002,Rainy Lake,-113.589791,47.347397,1259.42,US,MT,Missoula,America/Denver,NA,unnamed road,NA,NA,PM2.5,0002,Inactive,MT1,Montana DEQ,R8,-7,NA,NA,"unnamed road, Missoula County, MT, United States of America"
1bc7811e85137fa5,020200012,Palmer,-149.104,61.599,29.9,US,AK,Matanuska-Susitna,America/Anchorage,571,East Elmwood Avenue,Palmer,99645,PM2.5,0012,Inactive,AK1,State of Alaska DEC,USEPA,-9,NA,NA,"571 East Elmwood Avenue, Palmer, AK 99645, United States of America"
49dd2e2b9ae4836a,260770008,KALAMAZOO,-85.5419,42.2781,390.4,US,MI,Kalamazoo,America/Detroit,3100,Lake Street,Kalamazoo,49048,PM2.5,0008,Active,MI1,"Michigan Department of Environment, Great Lakes, and Energy",R5,-5,28020,"Kalamazoo-Portage, MI","Station 3 - Lakewood, 3100 Lake Street, Lakewood, Kalamazoo, MI 49048, United States of America"
633f8f5e9334b232,270834210,Marshall,-95.835,44.4572,359.66,US,MN,Lyon,America/Chicago,NA,West Channel Road,Marshall,56258,PM2.5,4210,Active,MN1,Minnesota Pollution Control Agency,R5,-6,32140,"Marshall, MN","West Channel Road, Marshall, MN 56258, United States of America"
9697b73127f527cb,100051002,SEAFORD,-75.6131,38.6444,8.72,US,DE,Sussex,America/New_York,312,North Arch Street,NA,19973,PM2.5,1002,Active,DE1,Delaware Dept. of Natural Resources and Environment,R3,-5,42580,"Seaford, DE","312 North Arch Street, Seaford, Sussex County, DE 19973, United States of America"
0001770edc620bb8,000052001,Charette,-72.8928,46.4425,116.8,CA,QC,Maskinongé (MRC),America/Toronto,NA,2e Rang Sud,NA,NA,PM2.5,2001,Active,QC1,Canada-Quebec1,CA,-5,NA,NA,"2e Rang Sud, Charette, QC, Canada"
ed22eeb1a1a49915,840060539976,Big Sur Ranger Station,-121.781317,36.247808,90.28,US,CA,Monterey,America/Los_Angeles,NA,Cabrillo Highway,NA,93920-9998,PM2.5,0539,Inactive,MON,Monterey Bay Unified APCD,R9,-8,41500,"Salinas, CA","Big Sur Ranger Station, Cabrillo Highway, Monterey County, CA 93920-9998, United States of America"
7fb2283a0ac8f0bc,360610134,Division Street,-73.995,40.7142,12.32,US,NY,New York,America/New_York,53,Division Street,New York,10002,PM2.5,0134,Active,NY1,New York Dept. of Environmental Conservation,R2,-5,35620,"New York-Northern New Jersey-Long Island, NY-NJ-PA","53 Division Street, New York, NY 10002, United States of America"
3700e9430df82e60,470931013,AIR LAB,-83.9306,35.9803,279.96,US,TN,Knox,America/New_York,192,West Anderson Avenue,Knoxville,37917,PM2.5,1013,Active,TN4,Knox County Dept. of Air Quality Management,R4,-5,28940,"Knoxville, TN","192 West Anderson Avenue, Knoxville, TN 37917, United States of America"
499f712c1dd83208,180890036,Hammond-167th St,-87.495044,41.594427,183.91,US,IN,Lake,America/Chicago,NA,165th Street,Hammond,46323,PM2.5,0036,Active,IN4,Indiana Dept. of Environmental Management,R5,-6,16980,"Chicago-Naperville-Joliet, IL-IN-WI","165th Street, Hammond, IN 46323, United States of America"
dca6f974d1b46a68,330012004,Laconia,-71.496335,43.566122,220.8,US,NH,Belknap,America/New_York,66,Green Street,Laconia,03246,PM2.5,2004,Active,NH1,New Hampshire Dept. of Environmental Services,R1,-5,29060,"Laconia, NH","66 Green Street, Laconia, NH 03246, United States of America"
9504ef7273a27752,530530029,Tacoma-L St,-122.4517,47.1864,104,US,WA,Pierce,America/Los_Angeles,NA,South 76th Street,Tacoma,98408-1202,PM2.5,0029,Active,WA1,Washington Department of Ecology,R10,-8,42660,"Seattle-Tacoma-Bellevue, WA","Birney Elementary School, South 76th Street, Tacoma, WA 98408-1202, United States of America"
71df28bd7183f1f2,530530024,Tacoma-S 36th St,-122.46256,47.22634,108,US,WA,Pierce,America/Los_Angeles,NA,South 37th Street,Tacoma,98418-3920,PM2.5,0024,Active,WA1,Washington Department of Ecology,R10,-8,42660,"Seattle-Tacoma-Bellevue, WA","Reed Elementary School, South 37th Street, Tacoma, WA 98418-3920, United States of America"
07f1b4e8df12c89d,840530330047,Auburn 29th St,-122.2233,47.2814,31.7,US,WA,King,America/Los_Angeles,NA,29th Street Southeast,Auburn,98001-6537,PM2.5,0330,Active,WA1,Washington Department of Ecology,R10,-8,NA,NA,"Auburn Seventh Day Adventist Church, 29th Street Southeast, Auburn, WA 98001-6537, United States of America"
33a1cb93ed150d53,840530339990,Auburn M St SE,-122.2144,47.2875,37.41,US,WA,King,America/Los_Angeles,NA,25th Street Southeast,Auburn,98002,PM2.5,0339,Inactive,WA1,Washington Department of Ecology,R10,-8,42660,"Seattle-Tacoma-Bellevue, WA","Pioneer Elementary School, 25th Street Southeast, Auburn, WA 98002, United States of America"
b84f44e1cbf85fac,230030014,Madawaska PSB,-68.3211,47.3553,175.12,US,ME,Aroostook,America/New_York,428,Main Street,Madawaska,04756,PM2.5,0014,Active,ME1,Maine Dept. of Environmental Protection,R1,-5,NA,NA,"Madawaska Safety Complex, 428 Main Street, Madawaska, ME 04756, United States of America"
52edeaf7dfe9302c,490071003,P2,-110.769997,39.595798,1736.92,US,UT,Carbon,America/Denver,NA,South 2500 East,NA,84501,PM2.5,1003,Active,UT1,Utah Department of Environmental Quality,R8,-7,NA,NA,"South 2500 East, Carbon County, UT 84501, United States of America"
03f1137cb7eb0b41,370610002,KENANSVL,-77.9608,34.9547,33.9,US,NC,Duplin,America/New_York,NA,John B Hall Street,NA,28349,PM2.5,0002,Inactive,NC1,North Carolina DEQ - Division of Air Quality,R4,-5,NA,NA,"John B Hall Street, Kenansville, Duplin County, NC 28349, United States of America"
480eaed7eb9cf465,420692006,Scranton,-75.6231,41.4428,265.54,US,PA,Lackawanna,America/New_York,NA,University Drive,Dunmore,18512,PM2.5,2006,Active,PA1,Pennsylvania Dept. of Environmental Protection,R3,-5,42540,"Scranton--Wilkes-Barre, PA","Penn State Scranton, University Drive, Dunmore, PA 18512, United States of America"
950c48de00764e18,530730015,Bellingham-Yew St,-122.440201,48.762699,23.8,US,WA,Whatcom,America/Los_Angeles,NA,Alabama Street,Bellingham,98226-3955,PM2.5,0015,Inactive,WA1,Washington Department of Ecology,R10,-8,13380,"Bellingham, WA","Alabama St at Michigan St, Alabama Street, Bellingham, WA 98226-3955, United States of America"
1374a646786e98be,410711001,na,-123.2118,45.2094,44.8,US,OR,Yamhill,America/Los_Angeles,NA,Northwest 2nd Street,McMinnville,97128,PM2.5,1001,Inactive,OR1,Oregon Dept. of Environmental Quality,R10,-8,38900,"Portland-Vancouver-Beaverton, OR-WA","Newby Elementary School, Northwest 2nd Street, McMinnville, OR 97128, United States of America"
88f75107cbc4d5f4,410650007,The Dalles - Cherry Heights,-121.203387,45.602419,86.3,US,OR,Wasco,America/Los_Angeles,NA,Cherry Heights Road,The Dalles,95058,PM2.5,0007,Active,OR1,Oregon Dept. of Environmental Quality,R10,-8,17180,"City of The Dalles, OR","Saint Marys Academy, Cherry Heights Road, The Dalles, OR 95058, United States of America"
4ffd29b87ac380f0,060570005,Grass Valley,-121.055603,39.234402,851.19,US,CA,Nevada,America/Los_Angeles,180,Litton Drive,Grass Valley,95945,PM2.5,0005,Active,NOS,Northern Sierra AQMD,R9,-8,46020,"Truckee-Grass Valley, CA","AJA Video Systems, 180 Litton Drive, Spring Hill, Grass Valley, CA 95945, United States of America"
4eab18996b473c2e,090031003,East Hartford,-72.6297,41.7847,14.9,US,CT,Hartford,America/New_York,20,Remington Road,East Hartford,06108,PM2.5,1003,Active,CT1,Connecticut Dept. of Energy and Environmental Protection,R1,-5,25540,"Hartford-West Hartford-East Hartford, CT","Anna E. Norris School, 20 Remington Road, East Hartford, CT 06108, United States of America"
bf500cd4c2bd1605,271713201,St. Michael,-93.6686,45.2108,287.55,US,MN,Wright,America/Chicago,226,Central Avenue West,St. Michael,55376,PM2.5,3201,Active,MN1,Minnesota Pollution Control Agency,R5,-6,33460,"Minneapolis-St. Paul-Bloomington, MN-WI","226 Central Avenue West, St. Michael, MN 55376, United States of America"
b2faa0211d6772fe,090010010,Bridgeport,-73.195297,41.171398,6.7,US,CT,Fairfield,America/New_York,680,Park Avenue,Bridgeport,06604,PM2.5,0010,Active,CT1,Connecticut Dept. of Energy and Environmental Protection,R1,-5,14860,"Bridgeport-Stamford-Norwalk, CT","Theodore Roosevelt Elementary School, 680 Park Avenue, Bridgeport, CT 06604, United States of America"
de1db029cc0257f2,090090027,New Haven - Criscuolo Park,-72.902685,41.301288,2.79,US,CT,New Haven,America/New_York,11;13,James Street,New Haven,06513,PM2.5,0027,Active,CT1,Connecticut Dept. of Energy and Environmental Protection,R1,-5,35300,"New Haven-Milford, CT","11;13 James Street, Barnesville, New Haven, CT 06513, United States of America"
f171e011b4fdcb39,170314007,DESPLNS,-87.8631,42.0603,195.03,US,IL,Cook,America/Chicago,9501,Harrison Street,Des Plaines,60016,PM2.5,4007,Active,IL1,Illinois EPA,R5,-6,16980,"Chicago-Naperville-Joliet, IL-IN-WI","Illinois State Police District Chicago, 9501 Harrison Street, Des Plaines, IL 60016, United States of America"
c0568b52ab2910ef,060271023,Bishop Paiute Tribe-CA,-118.4167,37.3667,1288.9,US,CA,Inyo,America/Los_Angeles,NA,North Tu-Su Lane,NA,NA,PM2.5,1023,Active,BPT,Bishop Paiute Tribe,R9,-8,13860,"Bishop, CA","North Tu-Su Lane, Bishop Paiute Tribal Office, Inyo County, CA, United States of America"
e8421639f0ffc8cd,120090011,Fay Park,-80.8003,28.4692,6.7,US,FL,Brevard,America/New_York,6305,Depot Avenue,NA,32927,PM2.5,0011,Inactive,FL1,Florida Dept. of Environmental Protection,R4,-5,37340,"Palm Bay-Melbourne-Titusville, FL","6305 Depot Avenue, Brevard County, FL 32927, United States of America"
9c09126254a89aaa,420270100,State College,-77.8769,40.8114,349.41,US,PA,Centre,America/New_York,NA,Air Quality Lane,NA,16803-3073,PM2.5,0100,Active,PA1,Pennsylvania Dept. of Environmental Protection,R3,-5,44300,"State College, PA","Air Quality Learning and Demonstration Center, Air Quality Lane, Ferguson Township, PA 16803-3073, United States of America"
a05a53925830b6e4,270177417,Fond du Lac,-92.511722,46.713694,388.62,US,MN,Carlton,America/Chicago,1602,Big Lake Road,Cloquet,55720,PM2.5,7417,Active,MN1,Minnesota Pollution Control Agency,R5,-6,NA,NA,"1602 Big Lake Road, Cloquet, MN 55720, United States of America"
bcc8889c7d3d4048,330110020,Manchester,-71.462799,42.9953,84.2,US,NH,Hillsborough,America/New_York,NA,North Church Street,Manchester,03108,PM2.5,0020,Inactive,NH1,New Hampshire Dept. of Environmental Services,R1,-5,31700,"Manchester-Nashua, NH","North Church Street, Manchester, NH 03108, United States of America"
4ffcf698186f0f55,280470008,GPORT YC,-89.0497,30.39,8.78,US,MS,Harrison,America/Chicago,47,Maples Drive,Gulfport,39507,PM2.5,0008,Active,MS1,Mississippi DEQ,R4,-6,25060,"Gulfport-Biloxi, MS","47 Maples Drive, Gulfport, MS 39507, United States of America"
778b8fff6f62241c,000080402,PRINCE ALBERT,-105.75203,53.201694,0,CA,SK,NA,America/Regina,NA,13 Street East,Prince Albert,S6V 4W5,PM2.5,0402,Active,SK1,Saskatchewan Environment,CA,-6,NA,NA,"13 Street East, Prince Albert, SK S6V 4W5, Canada"
c702ff5391cbde3b,060879994,Ben Lomond,-122.076311,37.084458,114.4,US,CA,Santa Cruz,America/Los_Angeles,NA,Marion Avenue,NA,95005,PM2.5,9994,Inactive,MON,Monterey Bay Unified APCD,R9,-8,42100,"Santa Cruz-Watsonville, CA","San Lorenzo Valley Charter School, Marion Avenue, Ben Lomond, Santa Cruz County, CA 95005, United States of America"
e2e3a0919cc8c201,000050803,Trois-Rivières - École MEES,-72.546187,46.357175,0,CA,QC,Trois-Rivières,America/Toronto,NA,Rue Nicolas Perrot,Trois-Rivières,G9A 0B4,PM2.5,0803,Active,QC1,Canada-Quebec1,CA,-5,NA,NA,"Mauricie English Elementary School, Rue Nicolas Perrot, Trois-Rivières, QC G9A 0B4, Canada"
5d96eead99c3ad1d,551330027,WAUKESHA - CLEVELAND AVE,-88.215,43.0203,263.14,US,WI,Waukesha,America/Chicago,1386,Cleveland Avenue,Waukesha,53186,PM2.5,0027,Active,WI1,Wisconsin Dept. of Natural Resources,R5,-6,33340,"Milwaukee-Waukesha-West Allis, WI","1386 Cleveland Avenue, Waukesha, WI 53186, United States of America"
b6683f8a97825e65,000100132,Mahon Park,-123.083611,49.323891,73.1,CA,BC,Metro Vancouver Regional District,America/Vancouver,NA,West 16th Street,North Vancouver,NA,PM2.5,0132,Active,BC2,Metro Vancouver,CA,-8,NA,NA,"Mahon Running Track, West 16th Street, North Vancouver, BC, Canada"
41c723e5357f0a8c,800150334,Xalostoc,-99.0824,19.5259,2161.2,MX,MEX,Tlalnepantla de Baz,America/Mexico_City,NA,Calle Nayarit,NA,55349,PM2.5,0334,Active,MXC,Red de Monitoreo de la Calidad del Aire de la Ciudad de Mexico,MX,-6,NA,NA,"IMSS H.G.Z. #76, Calle Nayarit, Colinas de San José, 55349, MEX, Mexico"
078f37046caa6f0b,480371031,Texarkana New Boston,-94.075671,33.435489,91.48,US,TX,Bowie,America/Chicago,2631,New Boston Road,Texarkana,75501,PM2.5,1031,Active,TX1,Texas Commission on Environmental Quality,R6,-6,45500,"Texarkana, TX-Texarkana, AR","Burger King, 2631 New Boston Road, Texarkana, TX 75501, United States of America"
334d37dcb03a9e45,124000100703,Kelowna KLO Road,-119.467461,49.862119,0,CA,BC,Regional District of Central Okanagan,America/Vancouver,1450,K.L.O. Road,Kelowna,V1Y 4X8,PM2.5,0100,Active,BC1,British Columbia Ministry of Environment,CA,-8,NA,NA,"Regional District of Central Okanagan, 1450 K.L.O. Road, Kelowna, BC V1Y 4X8, Canada"
71135fe4be463edb,380070002,Theodore Roosevelt NP - Painted Canyon VC,-103.514397,46.949699,734.45,US,ND,Billings,America/Denver,NA,East River Road,NA,58645,PM2.5,0002,Active,ND1,North Dakota Department of Environmental Quality,R8,-7,19860,"Dickinson, ND","East River Road, Billings County, ND 58645, United States of America"
c77bc1b5bd3e2dd7,000061201,Cornwall,-74.7394,45.0294,52.88,CA,ON,Cornwall,America/Toronto,107,Eleventh Street West,Cornwall,K6H 6R3,PM2.5,1201,Active,ON1,Ontario Ministry of the Environment,CA,-5,NA,NA,"107 Eleventh Street West, Cornwall, ON K6H 6R3, Canada"
91daf49715f221d3,124000060445,Toronto Downtown,-79.38908,43.64543,85.1,CA,ON,NA,America/Toronto,NA,Wellington Street West,Toronto,M5V 3C7,PM2.5,0060,Active,ON1,Ontario Ministry of the Environment,CA,-5,NA,NA,"Canadian Broadcasting Centre, Wellington Street West, Toronto, ON M5V 3C7, Canada"
930dc39fcbef74ae,180890022,Gary-IITRI,-87.3047,41.6067,183,US,IN,Lake,America/Chicago,NA,Route 18,Gary,46402,PM2.5,0022,Active,IN4,Indiana Dept. of Environmental Management,R5,-6,16980,"Chicago-Naperville-Joliet, IL-IN-WI","Route 18, Gary, IN 46402, United States of America"
71b31600caf2c70d,211111041,Algonquin Parkway,-85.82675,38.23158,134.09,US,KY,Jefferson,America/Kentucky/Louisville,NA,Gibson Lane,Louisville,40211,PM2.5,1041,Active,KY2,Louisville Metro Air Pollution Control District,R4,-5,31140,"Louisville, KY-IN","LMPD Firearms Training Center, Gibson Lane, South Parkland, Louisville, KY 40211, United States of America"
4442e3d52ffabbf2,220630002,French Settlement,-90.8114,30.315,4.92,US,LA,Livingston Parish,America/Chicago,16373,Perrilloux Road,NA,70733,PM2.5,0002,Active,LA1,Louisiana Department of Environmental Quality,R6,-6,12940,"Baton Rouge, LA","16373 Perrilloux Road, French Settlement, Livingston Parish, LA 70733, United States of America"
73f64b132f8eb223,201070002,Minecrek,-94.7319,38.1358,258.96,US,KS,Linn,America/Chicago,NA,Scott Road,NA,66738,PM2.5,0002,Inactive,KS1,Kansas Dept. of Health and Environment,R7,-6,28140,"Kansas City, MO-KS","Mine Creek Battlefield Park, Scott Road, Linn County, KS 66738, United States of America"
313a13a7530f754c,471450004,Harriman,-84.5439,35.9386,239.86,US,TN,Roane,America/New_York,NA,Clinton Street,Harriman,37748,PM2.5,0004,Active,TN1,Tennessee Air Pollution Control Div.,R4,-5,25340,"Harriman, TN","Central Elementary School, Clinton Street, Pine Hills, Harriman, TN 37748, United States of America"
f74c8a9a2f935c96,350130022,Santa Teresa,-106.6828,31.7878,1281,US,NM,Doña Ana,America/Denver,NA,Peter V. Domenici International Highway,NA,88008,PM2.5,0022,Active,NM1,New Mexico Air Quality Bureau,R6,-7,29740,"Las Cruces, NM","Peter V. Domenici International Highway, Doña Ana County, NM 88008, United States of America"
e8807bf768587eb7,000054901,La Patrie - Ditton,-71.2514,45.3733,477.9,CA,QC,Le Haut-Saint-François,America/Toronto,NA,Chemin du Petit Canada Ouest,NA,J0B 1Y0,PM2.5,4901,Active,QC1,Canada-Quebec1,CA,-5,NA,NA,"Chemin du Petit Canada Ouest, La Patrie, QC J0B 1Y0, Canada"
92cdf0bec92ed2f3,500070014,Burlington,-73.210297,44.476101,62.8,US,VT,Chittenden,America/New_York,NA,Main Street,Burlington,05401,PM2.5,0014,Active,VT1,Vermont Air Quality & Climate Division,R1,-5,15540,"Burlington-South Burlington, VT","Shell, Main Street, Burlington, VT 05401, United States of America"
ae8b269e9731bfeb,481490001,Fayette C601,-96.745875,29.962474,128.1,US,TX,Fayette,America/Chicago,766,Roznov Road,NA,78940,PM2.5,0001,Active,TX1,Texas Commission on Environmental Quality,R6,-6,NA,NA,"766 Roznov Road, Fayette County, TX 78940, United States of America"
2b91f9ecd1ec7800,160270002,Nampa Fire Station,-116.562676,43.58031,758.33,US,ID,Canyon,America/Boise,NA,1st Street South,Nampa,83686,PM2.5,0002,Active,ID1,Idaho Department of Environmental Quality,R10,-7,14260,"Boise City-Nampa, ID","Nampa Fire Station, 1st Street South, Nampa, ID 83686, United States of America"
84c31e7d7b581b61,300490026,Rossiter Pump House,-112.0131,46.6588,1139.8,US,MT,Lewis and Clark,America/Denver,1497,Sierra Road East,NA,59602,PM2.5,0026,Active,MT1,Montana DEQ,R8,-7,25740,"Helena, MT","Rossiter Elementary School, 1497 Sierra Road East, Helena Valley Northeast, MT 59602, United States of America"
0de266f3f4926dd1,320030024,Virgin Valley,-114.050347,36.815897,540.46,US,NV,Clark,America/Los_Angeles,NA,Hillside Drive,Mesquite,89024,PM2.5,0024,Active,NV1,Clark County Department of Environment and Sustainability,R9,-8,NA,NA,"Virgin Valley High School, Hillside Drive, Mesquite, NV 89024, United States of America"
6452b004b5587c17,060371302,Compton,-118.205,33.9014,27.5,US,CA,Los Angeles,America/Los_Angeles,1700,East Pixley Street,Compton,90221,PM2.5,1302,Active,CA3,South Coast AQMD,R9,-8,31100,"Los Angeles-Long Beach-Santa Ana, CA","1700 East Pixley Street, Compton, CA 90221, United States of America"
e7a5a21e9df7fc59,483750320,Amarillo Texas A&M C320,-101.9083,35.2006,1122.7,US,TX,Potter,America/Chicago,6500,West Amarillo Boulevard,Amarillo,79106,PM2.5,0320,Active,TX1,Texas Commission on Environmental Quality,R6,-6,11100,"Amarillo, TX","Texas A&M AgriLife Research and Extension Center, 6500 West Amarillo Boulevard, Amarillo, TX 79106, United States of America"
34cf3a00968ab33a,000100701,Kelowna College,-119.475,49.8611,300.1,CA,BC,Regional District of Central Okanagan,America/Vancouver,1170,K.L.O. Road,Kelowna,V1Y 4X8,PM2.5,0701,Inactive,BC1,British Columbia Ministry of Environment,CA,-8,NA,NA,"1170 K.L.O. Road, Kelowna, BC V1Y 4X8, Canada"
0f802e094de81d04,000060303,Kingston,-76.31,44.13,25,US,NY,Jefferson,America/New_York,NA,Votra Road,NA,13618,PM2.5,0303,Inactive,ON1,Ontario Ministry of the Environment,CA,-5,48060,"Watertown-Fort Drum, NY","Votra Road, Cape Vincent, NY 13618, United States of America"
011ba1bceca8a6b8,000040207,SAINT JOHN WEST,-66.0803,45.2536,54.9,CA,NB,Saint John,America/Moncton,NA,Lancaster Avenue,Saint John,E2M 1G2,PM2.5,0207,Active,CN1,Environment Canada,CA,-4,NA,NA,"Hillcrest Baptist Church, Lancaster Avenue, Saint John, NB E2M 1G2, Canada"
1bc87af647e21b6f,320310016,Reno3,-119.807744,39.52507,1369.16,US,NV,Washoe,America/Los_Angeles,94,River Rock Street,Reno,89501,PM2.5,0016,Inactive,NV2,Washoe County Health District Air Quality Management Division,R9,-8,39900,"Reno-Sparks, NV","94 River Rock Street, Reno, NV 89501, United States of America"
477b7dad2d952dad,490353006,Hawthorne,-111.871696,40.733501,1314.6,US,UT,Salt Lake,America/Denver,NA,1700 South,Salt Lake City,84115,PM2.5,3006,Active,UT1,Utah Department of Environmental Quality,R8,-7,41620,"Salt Lake City, UT","Hawthorne Elementary School, 1700 South, Salt Lake City, UT 84115, United States of America"
c45ca81e966d5d0e,421010076,MON,-75.207205,39.988842,28.4,US,PA,Philadelphia,America/New_York,NA,Schuylkill Expressway,Philadelphia,19131,PM2.5,0076,Active,PA2,Philadelphia Air Management Services,R3,-5,NA,NA,"Car Barn Compound, Schuylkill Expressway, Philadelphia, PA 19131, United States of America"
b4b0b8a84532edba,340030004,Fort Lee,-73.9683,40.854401,85.09,US,NJ,Bergen,America/New_York,NA,I 95,Fort Lee,07024,PM2.5,0004,Inactive,NJ1,New Jersey Dept. of Environmental Protection,R2,-5,35620,"New York-Northern New Jersey-Long Island, NY-NJ-PA","I 95, Fort Lee, NJ 07024, United States of America"
963dfff8f48bdad8,000052701,Temiscaming,-79.0997,46.72139,80.5,CA,QC,Témiscamingue,America/Toronto,NA,Rue Boucher,NA,J0Z 3R0,PM2.5,2701,Active,QC1,Canada-Quebec1,CA,-5,NA,NA,"Rue Boucher, Témiscaming, QC J0Z 3R0, Canada"
6274fe24b590b1f3,110010042,Ohio Drive,-77.033129,38.876048,3.32,US,DC,NA,America/New_York,1100,Ohio Drive Southwest,Washington,20227,PM2.5,0042,Inactive,DC1,District of Columbia - Department of Energy and Environment,R3,-5,47900,"Washington-Arlington-Alexandria, DC-VA-MD-WV","1100 Ohio Drive Southwest, Washington, DC 20227, United States of America"
bdd88108070dc7d9,150012021,WAIKOLOA,-155.798067,19.977467,183.9,US,HI,Hawaiʻi,Pacific/Honolulu,NA,NA,Waikui,NA,PM2.5,2021,Active,HI1,Hawaii State Dept. of Health,R9,-10,NA,NA,"Waikui, Hawaii, United States of America"
9d721db598266581,040191028,Children's Park Site,-110.9822,32.2953,700.9,US,AZ,Pima,America/Phoenix,4917,North Via Carina,NA,85704,PM2.5,1028,Active,AZ3,Pima County Department of Environmental Quality,R9,-7,46060,"Tucson, AZ","4917 North Via Carina, Pima County, AZ 85704, United States of America"
b450514f9261c130,060271018,Lone Pine Paiute/Shoshone Tribe-CA,-118.04,36.5975,1288.9,US,CA,Inyo,America/Los_Angeles,NA,Sub Station Road,NA,93545,PM2.5,1018,Active,TRX,Quality Review and Exchange System for Tribes (QREST),R8,-8,13860,"Bishop, CA","Sub Station Road, Lone Pine, Inyo County, CA 93545, United States of America"
23932caa3338b243,060072002,Paradise Theater,-121.59135,39.77919,635.39,US,CA,Butte,America/Los_Angeles,6701,Clark Road,Paradise,95969,PM2.5,2002,Active,CA8,California Air Resources Board,R9,-8,NA,NA,"Paradise Cinema 7, 6701 Clark Road, Paradise, CA 95969, United States of America"
f3a0c5aa956e0935,000102801,Elk Falls Dogwood,-125.2484,50.018425,60.1,CA,BC,Strathcona Regional District,America/Vancouver,NA,Westmere Road,Campbell River,V9W 4A3,PM2.5,2801,Active,BC1,British Columbia Ministry of Environment,CA,-8,NA,NA,"Westmere Road, Campbell River, BC V9W 4A3, Canada"
764d260e8665ba0d,000100060,Trail Aquatic Centre,-117.6972,49.0956,486.2,CA,BC,Regional District of Kootenay Boundary,America/Vancouver,NA,Columbia Avenue,Trail,V1R 1S3,PM2.5,0060,Inactive,BC1,British Columbia Ministry of Environment,CA,-8,NA,NA,"Aquatic center, Columbia Avenue, Trail, BC V1R 1S3, Canada"
b98f1a8818dca402,000062001,North Bay,-79.4453,46.3175,0,CA,ON,Nipissing District,America/Toronto,NA,Olive Street West,North Bay,P1B 4C8,PM2.5,2001,Active,ON1,Ontario Ministry of the Environment,CA,-5,NA,NA,"Food Basics, Olive Street West, North Bay, ON P1B 4C8, Canada"
e918c5f6490b092a,000065801,Chatham,-82.2086,42.4033,14.9,CA,ON,Chatham-Kent,America/Nipigon,NA,Sussex Street,Chatham,N7L 3T5,PM2.5,5801,Active,ON1,Ontario Ministry of the Environment,CA,-5,NA,NA,"Chatham-Kent Superior Court, Sussex Street, Chatham, ON N7L 3T5, Canada"
d67ead5d8797dde3,180970087,Indpls - I-70 E,-86.13088,39.787933,224.58,US,IN,Marion,America/Indiana/Indianapolis,NA,I 70,Indianapolis,46201,PM2.5,0087,Active,IN4,Indiana Dept. of Environmental Management,R5,-5,26900,"Indianapolis, IN","I 70, Indianapolis, IN 46201, United States of America"
365882eb5497ada3,060670015,Bercut Dr,-121.503728,38.593328,10.18,US,CA,Sacramento,America/Los_Angeles,184,Bercut Drive,Sacramento,95811,PM2.5,0015,Active,CA1,Sacramento Metro. AQMD,R9,-8,40900,"Sacramento--Arden-Arcade--Roseville, CA","184 Bercut Drive, Sacramento, CA 95811, United States of America"
f3067e11de31fff4,370670022,HATTIEAVEN,-80.2267,36.1106,281.8,US,NC,Forsyth,America/New_York,1218,North Dunleith Avenue,Winston-Salem,27101,PM2.5,0022,Active,NC3,Forsyth County Office of Environmental Assistance and Protection,R4,-5,49180,"Winston-Salem, NC","1218 North Dunleith Avenue, Winston-Salem, NC 27101, United States of America"
541ff3e07383d7c6,420750100,Lebanon,-76.383446,40.33733,158.3,US,PA,Lebanon,America/New_York,1231,Birch Road,South Lebanon Township,17042,PM2.5,0100,Inactive,PA1,Pennsylvania Dept. of Environmental Protection,R3,-5,30140,"Lebanon, PA","1231 Birch Road, Hebron, South Lebanon Township, PA 17042, United States of America"
0c2fb2d0752bbb45,516500008,HAMPTON,-76.38702,37.10373,4,US,VA,NA,America/New_York,NA,Wythe Landing Loop,Hampton,23681,PM2.5,0008,Active,VA1,Virginia Dept. of Environmental Quality,R3,-5,47260,"Virginia Beach-Norfolk-Newport News, VA-NC","Wythe Landing Loop, Hampton, VA 23681, United States of America"
dd658ca0b859a031,530530022,Puyallup-Puyallup Tribe,-122.3433,47.204399,9.8,US,WA,Pierce,America/Los_Angeles,6503,59th Street East,NA,98371,PM2.5,0022,Inactive,WA1,Washington Department of Ecology,R10,-8,42660,"Seattle-Tacoma-Bellevue, WA","6503 59th Street East, Waller, Pierce County, WA 98371, United States of America"
ad17b44c91f1a226,132450091,Augusta,-82.0219,33.4333,46.1,US,GA,Richmond,America/New_York,NA,Bungalow Road,Augusta,30906,PM2.5,0091,Active,GA1,Georgia Department of Natural Resources,R4,-5,12260,"Augusta-Richmond County, GA-SC","Murphey Middle School, Bungalow Road, Kendan Park, Augusta, GA 30906, United States of America"
2b123c59512d07f3,MMOAQ1005,Fort Walton,-86.6667,30.4266,91.5,US,FL,Okaloosa,America/Chicago,NA,Lovejoy Road Northwest,Fort Walton Beach,32548,PM2.5,1005,Inactive,OAQ,EPA Office of Air Quality Planning and Standards,USEPA,-6,23020,"Fort Walton Beach-Crestview-Destin, FL","New Heights School, Lovejoy Road Northwest, Fort Walton Beach, FL 32548, United States of America"
4d29c014fcf2f039,840560230004,Kemmerer Mobile,-110.537888,41.783083,2119.4,US,WY,Lincoln,America/Denver,58,Burgoon Drive,Diamondville,83116,PM2.5,0230,Active,WY1,Wyoming Department of Environmental Quality,R8,-7,NA,NA,"58 Burgoon Drive, Diamondville, WY 83116, United States of America"
2e59487ab1b01107,840480131090,Von Ormy Highway 16,-98.589126,29.162942,207.1,US,TX,Atascosa,America/Chicago,NA,State Highway 16,NA,78236,PM2.5,0131,Active,TX1,Texas Commission on Environmental Quality,R6,-6,41700,"San Antonio, TX","State Highway 16, Atascosa County, TX 78236, United States of America"
9d50667bade43fe9,480290059,Calaveras Lake C59,-98.311699,29.275299,140.3,US,TX,Bexar,America/Chicago,14914,Laguna Road,NA,78223,PM2.5,0059,Active,TX1,Texas Commission on Environmental Quality,R6,-6,41700,"San Antonio, TX","14914 Laguna Road, Bexar County, TX 78223, United States of America"
83a3475f308031cf,482011050,Seabrook Friendship Park C45,-95.0156,29.5831,3.1,US,TX,Harris,America/Chicago,NA,Park Drive,Seabrook,77586,PM2.5,1050,Active,TX1,Texas Commission on Environmental Quality,R6,-6,26420,"Houston-Sugar Land-Baytown, TX","Park Drive, Seabrook, TX 77586, United States of America"
70654cc484a57f10,482010572,Clear Lake High School C572,-95.105,29.5833,6.1,US,TX,Harris,America/Chicago,NA,Falcon Pass,Houston,77062,PM2.5,0572,Inactive,TX1,Texas Commission on Environmental Quality,R6,-6,26420,"Houston-Sugar Land-Baytown, TX","Clear Lake High School, Falcon Pass, Houston, TX 77062, United States of America"
94760bd567c8c2b3,051390006,El Dorado,-92.6689,33.215,79.59,US,AR,Union,America/Chicago,NA,West Faulkner Street,El Dorado,71730,PM2.5,0006,Active,AR1,Arkansas Department of Environmental Quality,R6,-6,20980,"El Dorado, AR","Barton Middle School, West Faulkner Street, El Dorado, AR 71730, United States of America"
5371ca54a9476a17,040134021,Eastwood,-112.002642,33.41046,342.26,US,AZ,Maricopa,America/Phoenix,NA,Maricopa Freeway,Phoenix,85040,PM2.5,4021,Active,AZ2,Maricopa County Air Quality Department,R9,-7,38060,"Phoenix-Mesa-Scottsdale, AZ","Maricopa Freeway, Phoenix, AZ 85040, United States of America"
16e6d8965887fb86,371830021,Triple Oak - Near Road,-78.8197,35.8652,97,US,NC,Wake,America/New_York,NA,I 40,NA,27560-9194,PM2.5,0021,Active,NC1,North Carolina DEQ - Division of Air Quality,R4,-5,39580,"Raleigh-Cary, NC","I 40, Wake County, NC 27560-9194, United States of America"
6e2f44cc8a8542cd,370650099,LEGGETT,-77.5843,35.988278,18,US,NC,Edgecombe,America/New_York,24,NC 97,NA,27886,PM2.5,0099,Active,NC1,North Carolina DEQ - Division of Air Quality,R4,-5,40580,"Rocky Mount, NC","24 NC 97, Leggett, Edgecombe County, NC 27886, United States of America"
b438a5baebdbae7b,060670011,Elk Grove,-121.420838,38.302591,6.4,US,CA,Sacramento,America/Los_Angeles,NA,unnamed road,NA,NA,PM2.5,0011,Active,CA1,Sacramento Metro. AQMD,R9,-8,40900,"Sacramento--Arden-Arcade--Roseville, CA","unnamed road, Sacramento County, CA, United States of America"
badd95aafd66438f,120170006,Crystal River Preserve,-82.643094,28.958372,1.46,US,FL,Citrus,America/New_York,NA,West Power Line Street,NA,34428,PM2.5,0006,Active,FL1,Florida Dept. of Environmental Protection,R4,-5,26140,"Homosassa Springs, FL","West Power Line Street, Citrus County, FL 34428, United States of America"
535c42cd7c732a7e,840120013012,Paynes Prairie Farm,-82.266066,29.56615,22.82,US,FL,Alachua,America/New_York,NA,unnamed road,NA,NA,PM2.5,0013,Active,FL1,Florida Dept. of Environmental Protection,R4,-5,NA,NA,"unnamed road, Alachua County, FL, United States of America"
4525899d3be929c4,450250001,Chesterfield,-80.198898,34.615299,147,US,SC,Chesterfield,America/New_York,NA,State Highway 145,NA,NA,PM2.5,0001,Active,SC1,South Carolina DHEC,R4,-5,NA,NA,"State Highway 145, Campbell Crossroads, Chesterfield County, SC, United States of America"
765871585945f617,370630099,Burdens Creek,-78.8747,35.889402,91.5,US,NC,Durham,America/New_York,NA,unnamed road,NA,27709,PM2.5,0099,Active,OAQ,EPA Office of Air Quality Planning and Standards,USEPA,-5,20500,"Durham, NC","unnamed road, Durham County, NC 27709, United States of America"
3a24b6d11f7aaefe,320030299,Liberty High School,-115.14885,35.987908,710.64,US,NV,Clark,America/Los_Angeles,NA,Siddall Avenue,Henderson,89183,PM2.5,0299,Active,NV1,Clark County Department of Environment and Sustainability,R9,-8,29820,"Las Vegas-Paradise, NV","Liberty High School, Siddall Avenue, Henderson, NV 89183, United States of America"
df9db91b21de4b29,061072010,Porterville-NFS,-119.055,36.0319,136.2,US,CA,Tulare,America/Los_Angeles,NA,Hope Avenue,Porterville,93258,PM2.5,2010,Active,CA6,San Joaquin Valley Unified APCD,R9,-8,NA,NA,"Hope Avenue, Porterville, CA 93258, United States of America"
2e6f5753b410a953,010731005,MCADORY,-87.0036,33.3311,154.24,US,AL,Jefferson,America/Chicago,6052,Townley Way,NA,35111,PM2.5,1005,Active,AL2,Jefferson County Department of Health,R4,-6,13820,"Birmingham-Hoover, AL","6052 Townley Way, Jefferson County, AL 35111, United States of America"
799ef4fcc704d9b7,400310651,Lawton North,-98.428802,34.632999,362,US,OK,Comanche,America/Chicago,2323,Northwest Williams Avenue,Lawton,73505,PM2.5,0651,Active,OK1,Oklahoma Department of Environmental Quality,R6,-6,30020,"Lawton, OK","2323 Northwest Williams Avenue, Lawton, OK 73505, United States of America"
83059d4851151a44,840401439029,Muscogee (Creek) Nation,-96.012749,35.901324,215.9,US,OK,Tulsa,America/Chicago,1730,West 181st Street South,NA,74047,PM2.5,1439,Active,CK1,Cherokee Nation,R6,-6,NA,NA,"1730 West 181st Street South, Glenpool, Tulsa County, OK 74047, United States of America"
6aeaf2b1348c2eff,470931020,SPRINGHILL,-83.8761,36.0183,310.87,US,TN,Knox,America/New_York,NA,Mildred Drive,Knoxville,37914,PM2.5,1020,Active,TN4,Knox County Dept. of Air Quality Management,R4,-5,28940,"Knoxville, TN","Spring Hill Middle School, Mildred Drive, Buffat Heights, Knoxville, TN 37914, United States of America"
989fa5ab4b1521f8,840040059999,Grand Canyon ozone bench,-112.107028,36.060444,2124.3,US,AZ,Coconino,America/Phoenix,NA,Mather Point Amphitheatre,NA,NA,PM2.5,0059,Active,NPS,National Park Service,USEPA,-7,NA,NA,"Mather Point Amphitheatre, Grand Canyon Village, Coconino County, AZ, United States of America"
97c5805fc72f0c37,060959999,Rio Vista,-121.70564,38.18839,6.7,US,CA,Solano,America/Los_Angeles,NA,Baumann Road,Rio Vista,94571,PM2.5,9999,Active,YS1,Yolo-Solano AQMD,R9,-8,46700,"Vallejo-Fairfield, CA","Rio Vista Municipal Airport, Baumann Road, Rio Vista, CA 94571, United States of America"
e9b9574d4de55583,540390020,CHARLESTON,-81.621161,38.346258,181.54,US,WV,Kanawha,America/New_York,1488,Dixie Street,Charleston,25311,PM2.5,0020,Active,WV2,West Virginia Division of Air Quality - Wheeling,R3,-5,NA,NA,"1488 Dixie Street, Charleston, WV 25311, United States of America"
4df56a6250a89033,060953002,Vacaville,-121.9617,38.3525,39.1,US,CA,Solano,America/Los_Angeles,399,Elmira Road,Vacaville,95687,PM2.5,3002,Active,YS1,Yolo-Solano AQMD,R9,-8,46700,"Vallejo-Fairfield, CA","399 Elmira Road, Vacaville, CA 95687, United States of America"
649ac9880618b8d2,490490002,North Provo,-111.6632,40.253502,1411.2,US,UT,Utah,America/Denver,1436,North 300 West,Provo,84604,PM2.5,0002,Inactive,UT1,Utah Department of Environmental Quality,R8,-7,39340,"Provo-Orem, UT","1436 North 300 West, Pleasant View, Provo, UT 84604, United States of America"
5642931558b83d66,060631007,Chester BAM,-121.235001,40.301899,1383.57,US,CA,Plumas,America/Los_Angeles,NA,CA 36,Chester,96020,PM2.5,1007,Active,NOS,Northern Sierra AQMD,R9,-8,NA,NA,"Subway, CA 36, Chester, CA 96020, United States of America"
6b8e96d859c4b74a,421290008,Greensburg,-79.5061,40.3053,361.21,US,PA,Westmoreland,America/New_York,NA,unnamed road,Hempfield Township,15619,PM2.5,0008,Active,PA1,Pennsylvania Dept. of Environmental Protection,R3,-5,38300,"Pittsburgh, PA","unnamed road, Hempfield Township, PA 15619, United States of America"
fe672333abc620ba,180670004,Kokomo - E. Vaile Ave.,-86.109718,40.481349,249.27,US,IN,Howard,America/Indiana/Indianapolis,1802,East Vaile Avenue,Kokomo,46901,PM2.5,0004,Active,IN4,Indiana Dept. of Environmental Management,R5,-5,29020,"Kokomo, IN","Christian Book Store, 1802 East Vaile Avenue, Kokomo, IN 46901, United States of America"
86f9213ea067d9b2,840160410002,Preston PM25 BAM,-111.864167,42.082222,1439.9,US,ID,Franklin,America/Boise,NA,East Valley View Drive,Preston,NA,PM2.5,0410,Active,ID1,Idaho Department of Environmental Quality,R10,-7,NA,NA,"Preston Jr. High School, East Valley View Drive, Preston, ID, United States of America"
c35d3be665878266,250130018,SPRINGFIELDSP,-72.58499,42.120248,59.95,US,MA,Hampden,America/New_York,NA,Armory Circle,Springfield,01014,PM2.5,0018,Active,MA1,Massachusetts Dept. of Environmental Protection,R1,-5,NA,NA,"Armory Circle, Springfield, MA 01014, United States of America"
b40d9f33740bce63,410330011,Provolt - Seed Orchard,-123.2321,42.290094,359,US,OR,Josephine,America/Los_Angeles,NA,Williams Highway,NA,NA,PM2.5,0011,Inactive,OR1,Oregon Dept. of Environmental Quality,R10,-8,24420,"Grants Pass, OR","Williams Highway, Provolt, Josephine County, OR, United States of America"
70d48d7f681d0365,410290133,Medford - Grant & Belmont,-122.87923,42.31411,442.9,US,OR,Jackson,America/Los_Angeles,741,Belmont Street,Medford,97501,PM2.5,0133,Inactive,OR1,Oregon Dept. of Environmental Quality,R10,-8,32780,"Medford, OR","741 Belmont Street, Medford, OR 97501, United States of America"
a2c8943de9b7288b,060970004,Sebastopol,-122.818294,38.403765,24.29,US,CA,Sonoma,America/Los_Angeles,NA,Solar Way,NA,95472,PM2.5,0004,Active,CA2,San Francisco Bay Area AQMD,R9,-8,42220,"Santa Rosa-Petaluma, CA","Solar Way, Sebastopol, Sonoma County, CA 95472, United States of America"
14500472d9d83073,060970003,Santa Rosa,-122.7097,38.4431,15.6,US,CA,Sonoma,America/Los_Angeles,838,5th Street,Santa Rosa,95404,PM2.5,0003,Inactive,CA2,San Francisco Bay Area AQMD,R9,-8,42220,"Santa Rosa-Petaluma, CA","Downtown Santa Rosa, 838 5th Street, Santa Rosa, CA 95404, United States of America"
66ab1a75fd81a573,081230006,Greeley Hospital,-104.7061,40.4147,1450.3,US,CO,Weld,America/Denver,1598,16th Avenue Court,Greeley,80631,PM2.5,0006,Active,CO1,Colorado Department of Public Health and Environment,R8,-7,24540,"Greeley, CO","1598 16th Avenue Court, Greeley, CO 80631, United States of America"
64a2eb40f18374af,420490003,Erie,-80.0372,42.1428,201.19,US,PA,Erie,America/New_York,2040,East 10th Street,Erie,16511,PM2.5,0003,Active,PA1,Pennsylvania Dept. of Environmental Protection,R3,-5,21500,"Erie, PA","2040 East 10th Street, Erie, PA 16511, United States of America"
040bf8f50ba62500,840250212005,WeymouthFR,-70.963346,42.241229,8.65,US,MA,Norfolk,America/New_York,68,Monatiquot Street,Weymouth,02191,PM2.5,0212,Active,MA1,Massachusetts Dept. of Environmental Protection,R1,-5,NA,NA,"68 Monatiquot Street, Weymouth, MA 02191, United States of America"
bb188acf631fc957,261630097,NMH48217,-83.157893,42.261669,178.1,US,MI,Wayne,America/Detroit,NA,Gleason Street,Detroit,48217,PM2.5,0097,Active,MI1,"Michigan Department of Environment, Great Lakes, and Energy",R5,-5,19820,"Detroit-Warren-Livonia, MI","Mark Twain Elementary School, Gleason Street, Detroit, MI 48217, United States of America"
ef4a996b24c24659,261630039,CLOSED-DETROIT-W LAFAYETTE,-83.0689,42.3231,181.2,US,MI,Wayne,America/Detroit,2000,West Lafayette Boulevard,Detroit,48216,PM2.5,0039,Inactive,MI1,"Michigan Department of Environment, Great Lakes, and Energy",R5,-5,19820,"Detroit-Warren-Livonia, MI","Lafayette Garage, 2000 West Lafayette Boulevard, Detroit, MI 48216, United States of America"
6efee72164a3a9f4,250250044,Boston-Von Hillern,-71.056056,42.325197,4,US,MA,Suffolk,America/New_York,188,Von Hillern Street,Boston,01125,PM2.5,0044,Active,MA1,Massachusetts Dept. of Environmental Protection,R1,-5,NA,NA,"188 Von Hillern Street, Boston, MA 01125, United States of America"
d46d180b419334b3,410310007,Madras - Westside School,-121.131599,44.6306,688.4,US,OR,Jefferson,America/Los_Angeles,NA,Southwest G Street,Madras,97741,PM2.5,0007,Active,OR1,Oregon Dept. of Environmental Quality,R10,-8,NA,NA,"Westside Elementary School, Southwest G Street, Madras, OR 97741, United States of America"
6e4f963eb41fbaab,300310017,West Yellowstone Park Ent #2,-111.089618,44.657014,2035.72,US,MT,Gallatin,America/Denver,NA,West Entrance Road,NA,59758,PM2.5,0017,Active,MT1,Montana DEQ,R8,-7,NA,NA,"West Entrance Road, Gallatin County, MT 59758, United States of America"
46b3676013a8806b,460290002,Watertown,-97.128802,44.89965,524.02,US,SD,Codington,America/Chicago,700,3rd Avenue Southwest,Watertown,57201,PM2.5,0002,Active,SD1,South Dakota Department of Agriculture and Natural Resources,R8,-6,NA,NA,"700 3rd Avenue Southwest, Watertown, SD 57201, United States of America"
6b7edc1475b2cf3d,000101003,Abbotsford,-122.30972,49.04278,79.9,CA,BC,NA,America/Vancouver,NA,Bevan Avenue,Abbotsford,V2S 1T4,PM2.5,1003,Active,BC2,Metro Vancouver,CA,-8,NA,NA,"Bevan Avenue, Abbotsford, BC V2S 1T4, Canada"
e637e52900ac59f1,000105301,Langdale Elementary,-123.479185,49.438848,70.2,CA,BC,Sunshine Coast Regional District,America/Vancouver,NA,Johnson Road,Area F (West Howe Sound),V0N 1V9,PM2.5,5301,Active,BC1,British Columbia Ministry of Environment,CA,-8,NA,NA,"Johnson at Forbes (NB), Johnson Road, Area F (West Howe Sound), BC V0N 1V9, Canada"
0875d34fe8f88d5d,000105604,Penticton Industrial Place,-119.59578,49.47753,308.1,CA,BC,Regional District of Okanagan-Similkameen,America/Vancouver,NA,Ellis Creek walkway,Penticton,V2A 6A6,PM2.5,5604,Active,BC1,British Columbia Ministry of Environment,CA,-8,NA,NA,"Ellis Creek walkway, Penticton, BC V2A 6A6, Canada"
8fd498b0da2e219f,124000101904,Cranbrook Muriel Baxter,-115.753682,49.507103,0,CA,BC,Regional District of East Kootenay,America/Edmonton,NA,20th Avenue South,Cranbrook,V1C 2P1,PM2.5,0101,Active,BC1,British Columbia Ministry of Environment,CA,-8,NA,NA,"20th Avenue South, Cranbrook, BC V1C 2P1, Canada"
3cf26a12344ceaab,000070203,Brandon,-99.9189,49.8422,380.43,CA,MB,NA,America/Winnipeg,NA,Victoria Avenue East,Brandon,R7A 5M6,PM2.5,0203,Active,CN3,Manitoba Conservation Air Quality Section,CA,-6,NA,NA,"Victoria Avenue East, Brandon, MB R7A 5M6, Canada"
ff64e1565fd93522,483390078,Conroe Relocated C78,-95.425,30.3503,42.7,US,TX,Montgomery,America/Chicago,NA,North Parkway,Conroe,77303,PM2.5,0078,Active,TX1,Texas Commission on Environmental Quality,R6,-6,26420,"Houston-Sugar Land-Baytown, TX","North Parkway, Conroe, TX 77303, United States of America"
3bc1aab6242f6c05,840MMGBU1003,EBAM 3,-119.227474,38.247743,1975.82,US,CA,Mono,America/Los_Angeles,NA,Twin Lakes Road,NA,93517,PM2.5,GBU1,Inactive,GBU,Great Basin Unified Air Pollution Control District,R9,-8,NA,NA,"Twin Lakes Road, Bridgeport, Mono County, CA 93517, United States of America"
db782b0970a271dc,060675003,Sloughhouse,-121.211131,38.494475,59.2,US,CA,Sacramento,America/Los_Angeles,NA,Sloughhouse Road,NA,95830,PM2.5,5003,Active,CA1,Sacramento Metro. AQMD,R9,-8,40900,"Sacramento--Arden-Arcade--Roseville, CA","Sacramento Metro Fire Station Number 58, Sloughhouse Road, Sacramento County, CA 95830, United States of America"
bc8136aad74dbdaa,420110011,Reading Airport,-75.9686,40.3833,92.1,US,PA,Berks,America/New_York,1189,Arnold Road,Bern Township,19605,PM2.5,0011,Active,PA1,Pennsylvania Dept. of Environmental Protection,R3,-5,39740,"Reading, PA","1189 Arnold Road, Bern Township, PA 19605, United States of America"
af4d0fb6322d7963,250270023,Worcester,-71.794701,42.263901,145.79,US,MA,Worcester,America/New_York,NA,Asylum Street,Worcester,01613,PM2.5,0023,Active,MA1,Massachusetts Dept. of Environmental Protection,R1,-5,49340,"Worcester, MA","Asylum Street, Central Business District, Worcester, MA 01613, United States of America"
f7876534491b959f,261630015,DETROIT-SW,-83.1072,42.3042,179.41,US,MI,Wayne,America/Detroit,675,Rademacher Street,Detroit,48209,PM2.5,0015,Active,MI1,"Michigan Department of Environment, Great Lakes, and Energy",R5,-5,19820,"Detroit-Warren-Livonia, MI","675 Rademacher Street, Detroit, MI 48209, United States of America"
06dd4bb719ab265f,261630098,DP4TH,-83.091943,42.312158,178.21,US,MI,Wayne,America/Detroit,857,McKinstry Street,Detroit,48209,PM2.5,0098,Active,MI1,"Michigan Department of Environment, Great Lakes, and Energy",R5,-5,19820,"Detroit-Warren-Livonia, MI","857 McKinstry Street, Detroit, MI 48209, United States of America"
5e7f024195fbdb4e,410230002,John Day Dayton St,-118.951302,44.417999,938.1,US,OR,Grant,America/Los_Angeles,NA,Northeast Dayton Street,NA,97845,PM2.5,0002,Active,OR1,Oregon Dept. of Environmental Quality,R10,-8,NA,NA,"Malheur National Forest Headquarters, Northeast Dayton Street, John Day, Grant County, OR 97845, United States of America"
5f4a18d09ad0b9f7,560330002,Sheridan PD,-106.955933,44.815142,1192.6,US,WY,Sheridan,America/Denver,NA,West 12th Street,Sheridan,82801,PM2.5,0002,Active,WY1,Wyoming Department of Environmental Quality,R8,-7,43260,"Sheridan, WY","Sheridan City Police, West 12th Street, Sheridan, WY 82801, United States of America"
b6cd6e44bd3626c7,160850002,McCall,-116.1065,44.890197,1525.2,US,ID,Valley,America/Boise,NA,Mission Street,NA,83638,PM2.5,0002,Active,ID1,Idaho Department of Environmental Quality,R10,-7,NA,NA,"Mission Street, McCall, Valley County, ID 83638, United States of America"
53d7d4f5336693a4,160850001,McCall,-116.093903,44.8992,1541.92,US,ID,Valley,America/Boise,NA,Deinhard Lane,NA,83638,PM2.5,0001,Inactive,ID1,Idaho Department of Environmental Quality,R10,-7,NA,NA,"Rite Aid, Deinhard Lane, McCall, Valley County, ID 83638, United States of America"
4e4b65c643b3bb0c,270530962,Minneapolis-Near Road,-93.2551,44.9653,258.18,US,MN,Hennepin,America/Chicago,1412,East 18th Street,Minneapolis,55404,PM2.5,0962,Active,MN1,Minnesota Pollution Control Agency,R5,-6,33460,"Minneapolis-St. Paul-Bloomington, MN-WI","1412 East 18th Street, Minneapolis, MN 55404, United States of America"
35af155aca8154de,271231907,St. Paul Payne - Phalen,-93.082984,44.971539,264.99,US,MN,Ramsey,America/Chicago,NA,North Arkwright Street,Saint Paul,55101,PM2.5,1907,Inactive,MN1,Minnesota Pollution Control Agency,R5,-6,33460,"Minneapolis-St. Paul-Bloomington, MN-WI","Bruce F Vento Elementary, North Arkwright Street, Saint Paul, MN 55101, United States of America"
961a664a95c9f57e,000101005,Abbotsford Airport,-122.326556,49.021506,64.4,CA,BC,NA,America/Vancouver,NA,Columbia Road,Abbotsford,V2T 5Y9,PM2.5,1005,Active,BC2,Metro Vancouver,CA,-8,NA,NA,"Columbia Road, Abbotsford, BC V2T 5Y9, Canada"
6df59c6184472aa1,000101401,Hope,-121.49944,49.36972,40,CA,BC,NA,America/Vancouver,NA,Airport Road,Hope,V0X 1L2,PM2.5,1401,Active,BC2,Metro Vancouver,CA,-8,NA,NA,"Airport Road, Hope, BC V0X 1L2, Canada"
30ce60d9141bb118,000103302,Nelson Kutenai Place,-117.2953,49.4908,542.3,CA,BC,Regional District of Central Kootenay,America/Vancouver,NA,Herridge Lane,Nelson,V1L 1S9,PM2.5,3302,Inactive,BC1,British Columbia Ministry of Environment,CA,-8,NA,NA,"Herridge Lane, Nelson, BC V1L 1S9, Canada"
2fe9d0a7ec6b6a66,484530021,Austin Webberville Road C171,-97.7131,30.2633,152.5,US,TX,Travis,America/Chicago,2509,Webberville Road,Austin,78702,PM2.5,0021,Active,TX1,Texas Commission on Environmental Quality,R6,-6,12420,"Austin-Round Rock, TX","2509 Webberville Road, Austin, TX 78702, United States of America"
46e7d6c4177410bb,120470015,White Springs,-82.7947,30.4264,38.56,US,FL,Hamilton,America/New_York,NA,CR 137,NA,NA,PM2.5,0015,Active,FL1,Florida Dept. of Environmental Protection,R4,-5,NA,NA,"CR 137, Facil, Hamilton County, FL, United States of America"
87fb04a69d9d4e1c,482430004,McDonald Observatory C317,-104.0853,30.6678,1830,US,TX,Jeff Davis,America/Chicago,NA,NA,NA,NA,PM2.5,0004,Inactive,TX1,Texas Commission on Environmental Quality,R6,-6,NA,NA,"Jeff Davis County, Texas, United States of America"
621f828694d36f12,130590002,Athens,-83.3575,33.925,209.93,US,GA,Athens-Clarke,America/New_York,NA,Vista Drive,Athens,30609,PM2.5,0002,Active,GA1,Georgia Department of Natural Resources,R4,-5,12020,"Athens-Clarke County, GA","Vista Drive, Athens, GA 30609, United States of America"
9ca183a5218532e1,060658005,Mira Loma - Van Buren,-117.4925,33.996387,230.9,US,CA,Riverside,America/Los_Angeles,NA,Webb Street,Jurupa Valley,NA,PM2.5,8005,Active,CA3,South Coast AQMD,R9,-8,40140,"Riverside-San Bernardino-Ontario, CA","Van Buren Elementary School, Webb Street, Bly, Jurupa Valley, CA, United States of America"
9bfdbea7bba73e53,261630093,ELIZA HOWELL-NR,-83.266319,42.38599,184.29,US,MI,Wayne,America/Detroit,NA,Schoolcraft Street,Detroit,48223,PM2.5,0093,Active,MI1,"Michigan Department of Environment, Great Lakes, and Energy",R5,-5,19820,"Detroit-Warren-Livonia, MI","Schoolcraft Street, Detroit, MI 48223, United States of America"
8e3f0e62b2af8cd7,410432002,Sweet Home - Fire Department,-122.7305,44.3958,164.1,US,OR,Linn,America/Los_Angeles,NA,Long Street,Sweet Home,97386,PM2.5,2002,Active,OR1,Oregon Dept. of Environmental Quality,R10,-8,10540,"Albany-Lebanon, OR","Sweet Home Fire District, Long Street, Sweet Home, OR 97386, United States of America"
b6f1803ffceb2944,300310016,West Yellostone City Center,-111.105003,44.661701,2024.3,US,MT,Gallatin,America/Denver,NA,Firehole Avenue,West Yellowstone,59758,PM2.5,0016,Inactive,MT1,Montana DEQ,R8,-7,14580,"Bozeman, MT","NAPA Auto Parts, Firehole Avenue, West Yellowstone, MT 59758, United States of America"
fbbe4efa98d8c27e,410010004,Baker City - Forest Service,-117.8446,44.78822,1047.7,US,OR,Baker,America/Los_Angeles,3136,G Street,Baker City,97814,PM2.5,0004,Active,OR1,Oregon Dept. of Environmental Quality,R10,-8,NA,NA,"3136 G Street, Baker City, OR 97814, United States of America"
a03d2c830ed4073d,000102102,Nanaimo Labieux Road,-123.99389,49.20083,122,CA,BC,Regional District of Nanaimo,America/Vancouver,NA,Labieux Road,Nanaimo,V9T 5V4,PM2.5,2102,Active,BC1,British Columbia Ministry of Environment,CA,-8,NA,NA,"Labieux Road, Nanaimo, BC V9T 5V4, Canada"
23330cdc38d43cca,000100119,Burnaby South,-122.98556,49.21528,144.9,CA,BC,Metro Vancouver Regional District,America/Vancouver,5455,Rumble Street,Burnaby,V5J 4K0,PM2.5,0119,Active,BC2,Metro Vancouver,CA,-8,NA,NA,"Burnaby South Secondary School, 5455 Rumble Street, Burnaby, BC V5J 4K0, Canada"
d815e5c4a810d943,280590006,PASCAGOULA,-88.533897,30.377501,4.47,US,MS,Jackson,America/Chicago,2809,Denny Avenue,Pascagoula,39581,PM2.5,0006,Active,MS1,Mississippi DEQ,R4,-6,37700,"Pascagoula, MS","Singing River Hospital, 2809 Denny Avenue, Pascagoula, MS 39581, United States of America"
8a9301154d947490,120730012,Tallahassee Community College,-84.3483,30.4397,21.91,US,FL,Leon,America/New_York,NA,Blountstown Highway,Tallahassee,32310,PM2.5,0012,Active,FL1,Florida Dept. of Environmental Protection,R4,-5,45220,"Tallahassee, FL","Blountstown Highway, Tallahassee, FL 32310, United States of America"
b3bb23043bf73a24,840480411086,Bryan Finfeather Road,-96.362842,30.627409,106.82,US,TX,Brazos,America/Chicago,NA,unnamed road,College Station,77840,PM2.5,0411,Active,TX1,Texas Commission on Environmental Quality,R6,-6,17780,"College Station-Bryan, TX","unnamed road, College Station, TX 77840, United States of America"
cb3333cbf47e3423,450630008,Irmo,-81.154999,34.051102,68.9,US,SC,Lexington,America/New_York,NA,Leisure Lane,NA,29210,PM2.5,0008,Active,SC1,South Carolina DHEC,R4,-5,17900,"Columbia, SC","Leaphart Elementary School, Leisure Lane, Leaphart, Lexington County, SC 29210, United States of America"
c457463e4ba83f93,060371103,Los Angeles - N. Main Street,-118.226755,34.066429,30.5,US,CA,Los Angeles,America/Los_Angeles,NA,North Main Street,Los Angeles,90012,PM2.5,1103,Active,CA3,South Coast AQMD,R9,-8,31100,"Los Angeles-Long Beach-Santa Ana, CA","LADWP Main Street Center, North Main Street, Los Angeles, CA 90012, United States of America"
c4b07c456167bec8,050350005,MARION,-90.1911,35.1967,66.46,US,AR,Crittenden,America/Chicago,798,L H Polk Drive,Marion,72364,PM2.5,0005,Active,AR1,Arkansas Department of Environmental Quality,R6,-6,32820,"Memphis, TN-MS-AR","798 L H Polk Drive, Marion, AR 72364, United States of America"
f1891228f013a3a1,371190045,Remount,-80.874084,35.213171,193.41,US,NC,Mecklenburg,America/New_York,NA,I 77;US 21,Charlotte,28203,PM2.5,0045,Active,NC2,Mecklenburg County Air Quality,R4,-5,16740,"Charlotte-Gastonia-Concord, NC-SC","I 77;US 21, Charlotte, NC 28203, United States of America"
d823ba598cdeb4ef,371190041,GARINGER,-80.7831,35.2411,232.33,US,NC,Mecklenburg,America/New_York,NA,East Sugar Creek Road,Charlotte,28205,PM2.5,0041,Active,NC2,Mecklenburg County Air Quality,R4,-5,16740,"Charlotte-Gastonia-Concord, NC-SC","Garinger High School, East Sugar Creek Road, Charlotte, NC 28205, United States of America"
85ec23b44043b0a9,840371190048,Friendship Park,-80.851473,35.281791,223.9,US,NC,Mecklenburg,America/New_York,NA,McAllister Drive,Charlotte,28216,PM2.5,1190,Active,NC2,Mecklenburg County Air Quality,R4,-5,16740,"Charlotte-Gastonia-Concord, NC-SC","McAllister Drive, Charlotte, NC 28216, United States of America"
9060c382d7be6018,840350439028,MOBILE - SANTA ANA,-106.524292,35.338407,1552.8,US,NM,Sandoval,America/Denver,93,Eagle Drive,NA,87004,PM2.5,0439,Inactive,CK1,Cherokee Nation,R6,-7,NA,NA,"93 Eagle Drive, Ranchito, Sandoval County, NM 87004, United States of America"
1c27da3a83e19625,371910005,DILLARD,-77.9939,35.3692,32.9,US,NC,Wayne,America/New_York,500,Wayne Avenue,Goldsboro,27530,PM2.5,0005,Inactive,NC1,North Carolina DEQ - Division of Air Quality,R4,-5,24140,"Goldsboro, NC","500 Wayne Avenue, Webtown, Goldsboro, NC 27530, United States of America"
5dcfc8fafa9b1877,TT9209004,Miami,-94.83889,36.922222,245.18,US,OK,Ottawa,America/Chicago,NA,East 66 Road,NA,74354,PM2.5,9004,Active,QT1,Quapaw Nation,R6,-6,33060,"Miami, OK","East 66 Road, Ottawa County, OK 74354, United States of America"
7a875733f97e23b0,060870007,Santa Cruz AMS,-121.98822,36.98332,27.48,US,CA,Santa Cruz,America/Los_Angeles,NA,Bostwick Lane,Live Oak,95065-1711,PM2.5,0007,Active,MON,Monterey Bay Unified APCD,R9,-8,42100,"Santa Cruz-Watsonville, CA","Green Acres Elementary School, Bostwick Lane, Live Oak, CA 95065-1711, United States of America"
edfa41bc240b14db,060612001,Lincoln,-121.3,38.89,50.9,US,CA,Placer,America/Los_Angeles,335,M Street,Lincoln,95648,PM2.5,2001,Active,PLA,Placer County APCD,R9,-8,40900,"Sacramento--Arden-Arcade--Roseville, CA","335 M Street, Lincoln, CA 95648, United States of America"
9fb00b3818b0c127,360610119,MVILLE,-73.953,40.813,11.9,US,NY,New York,America/New_York,1,Convent Avenue,New York,10027,PM2.5,0119,Inactive,NY1,New York Dept. of Environmental Conservation,R2,-5,35620,"New York-Northern New Jersey-Long Island, NY-NJ-PA","1 Convent Avenue, New York, NY 10027, United States of America"
427bd059a3af7f0a,360290005,Buffalo,-78.8094,42.8781,186.15,US,NY,Erie,America/New_York,175,Dingens Street,Buffalo,14206,PM2.5,0005,Active,NY1,New York Dept. of Environmental Conservation,R2,-5,15380,"Buffalo-Niagara Falls, NY","175 Dingens Street, Buffalo, NY 14206, United States of America"
58bf35c12f4be731,000061009,Sarnia,-82.395341,42.990263,182.6,CA,ON,Lambton,America/Nipigon,495,Errol Road West,Sarnia,N7V 1X5,PM2.5,1009,Active,ON1,Ontario Ministry of the Environment,CA,-5,NA,NA,"495 Errol Road West, Sarnia, ON N7V 1X5, Canada"
a08506a2649349ac,160490003,Kamiah-ID,-116.027496,46.2094,460.2,US,ID,Idaho,America/Los_Angeles,201,Apple Lane,NA,83536,PM2.5,0003,Inactive,TRX,Quality Review and Exchange System for Tribes (QREST),R8,-8,NA,NA,"201 Apple Lane, Idaho County, ID 83536, United States of America"
8246844713d29bd1,000090402,Medicine Hat - Crescent Hts,-110.6814,50.0492,0,CA,AB,Medicine Hat (city),America/Edmonton,NA,Jefferies Trail,Medicine Hat,T1A 5R6,PM2.5,0402,Active,AB1,Alberta Environmental Monitoring and Reporting Agency (AEMERA),CA,-7,NA,NA,"Jefferies Trail, Medicine Hat, AB T1A 5R6, Canada"
ed124e1a0fe842a2,000090227,Calgary Central,-114.0728,51.0467,0,CA,AB,NA,America/Edmonton,530,8 Avenue SW,Calgary,T2P 3S8,PM2.5,0227,Active,AB1,Alberta Environmental Monitoring and Reporting Agency (AEMERA),CA,-7,NA,NA,"Watermark Tower, 530 8 Avenue SW, Calgary, AB T2P 3S8, Canada"
96236bd453c473c8,000011002,FIREHALL-LABRADORCITY2,-66.910306,52.945487,0,CA,NL,NA,America/Goose_Bay,NA,Hudson Drive,Labrador City,A2V 1L8,PM2.5,1002,Active,CN1,Environment Canada,CA,-4,NA,NA,"Hudson Drive, Labrador City, NL A2V 1L8, Canada"
ca10bc96ed985315,800090043,Santa Fe,-99.2628,19.3573,2600.4,MX,NA,NA,America/Mexico_City,NA,Francisco J. Serrano,Mexico City,05348,PM2.5,0043,Active,MXC,Red de Monitoreo de la Calidad del Aire de la Ciudad de Mexico,MX,-6,NA,NA,"Francisco J. Serrano, Colonia Santa Lucía Reacomodo, 05348 Mexico City, Mexico"
fa23e29469f7c201,800150581,Nezahualcóyotl,-99.0281,19.3919,2236.3,MX,MEX,Nezahualcóyotl,America/Mexico_City,NA,Calle Basílica de Guadalupe,Nezahualcóyotl,57730,PM2.5,0581,Active,MXC,Red de Monitoreo de la Calidad del Aire de la Ciudad de Mexico,MX,-6,NA,NA,"Calle Basílica de Guadalupe, 57730 Nezahualcóyotl, MEX, Mexico"
3e4a1a0b578ad9ee,150012023,Mountain View,-155.102036,19.555445,423.4,US,HI,Hawaiʻi,Pacific/Honolulu,NA,Volcano Road,NA,96771,PM2.5,2023,Active,HI1,Hawaii State Dept. of Health,R9,-10,NA,NA,"Mountain View Elementary, Volcano Road, Mountain View CDP, HI 96771, United States of America"
4b9668fcd925c7da,840060374010,North Holywood,-118.363036,34.181977,197.9,US,CA,Los Angeles,America/Los_Angeles,NA,Delano Street,Los Angeles,91601,PM2.5,0374,Active,CA3,South Coast AQMD,R9,-8,31100,"Los Angeles-Long Beach-Santa Ana, CA","Saint Patrick School, Delano Street, Los Angeles, CA 91601, United States of America"
587fb745074f24c7,400190297,Healdton,-97.474197,34.256901,293.1,US,OK,Carter,America/Chicago,978,Airport Road,NA,73438,PM2.5,0297,Active,OK1,Oklahoma Department of Environmental Quality,R6,-6,11620,"Ardmore, OK","978 Airport Road, Healdton, Carter County, OK 73438, United States of America"
5aa586974ceccbda,840471130010,Jackson,-88.81959,35.705338,135.4,US,TN,Madison,America/Chicago,NA,Demonbreun Drive,Jackson,38305,PM2.5,1130,Active,TN1,Tennessee Air Pollution Control Div.,R4,-6,27180,"Jackson, TN","Demonbreun Drive, Jackson, TN 38305, United States of America"
9d4ece3b7c02d60b,471050109,LOUDONMS,-84.3417,35.7197,250.1,US,TN,Loudon,America/New_York,2175,Roberts Road,Loudon,37774,PM2.5,0109,Active,TN1,Tennessee Air Pollution Control Div.,R4,-5,28940,"Knoxville, TN","Loudon Elementary School, 2175 Roberts Road, Loudon, TN 37774, United States of America"
f72cab0004077e1c,060799999,Temporary PM2.5,-120.6824,35.32121,129,US,CA,San Luis Obispo,America/Los_Angeles,NA,Cabrillo Highway,NA,93406,PM2.5,9999,Inactive,SLO,San Luis Obispo County APCD,R9,-8,42020,"San Luis Obispo-Paso Robles, CA","Cheda Ranch, Cabrillo Highway, San Luis Obispo County, CA 93406, United States of America"
deb4c9cf9bdad5d2,401050207,Union,-95.632127,36.918242,224.44,US,OK,Nowata,America/Chicago,NA,OK 10,NA,NA,PM2.5,0207,Inactive,OK1,Oklahoma Department of Environmental Quality,R6,-6,NA,NA,"OK 10, Nowata County, OK, United States of America"
0ca32b325ec46de0,060392010,Madera-City,-120.0341,36.9533,83.54,US,CA,Madera,America/Los_Angeles,NA,Avenue 14,Madera,93637,PM2.5,2010,Active,CA6,San Joaquin Valley Unified APCD,R9,-8,31460,"Madera, CA","Avenue 14, Madera, CA 93637, United States of America"
3e20a44d2c90c297,060879990,Zayante Fire Station,-122.057206,37.067003,104.59,US,CA,Santa Cruz,America/Los_Angeles,7700,East Zayante Road,NA,95041,PM2.5,9990,Active,MON,Monterey Bay Unified APCD,R9,-8,42100,"Santa Cruz-Watsonville, CA","Zayante Fire Protection District, Station 1, 7700 East Zayante Road, Felton, Santa Cruz County, CA 95041, United States of America"
53893873fcce8d3a,261390005,JENISON,-85.852798,42.894402,390.4,US,MI,Ottawa,America/Detroit,NA,28th Avenue,Jenison,49428,PM2.5,0005,Active,MI1,"Michigan Department of Environment, Great Lakes, and Energy",R5,-5,26100,"Holland-Grand Haven, MI","Jenison Bible, 28th Avenue, Jenison, MI 49428, United States of America"
a95411bae68f73ad,360290023,Buffalo Near-road,-78.76611,42.92111,198.43,US,NY,Erie,America/New_York,NA,New York State Thruway,Town of Cheektowaga,14225,PM2.5,0023,Active,NY1,New York Dept. of Environmental Conservation,R2,-5,NA,NA,"New York State Thruway, Cheektowaga, NY 14225, United States of America"
e705ada0158252e8,330050007,Keene,-72.272332,42.930521,152.8,US,NH,Cheshire,America/New_York,NA,Cheshire Rail Trail,Keene,03435,PM2.5,0007,Active,NH1,New Hampshire Dept. of Environmental Services,R1,-5,28300,"Keene, NH","Cheshire Rail Trail, Keene, NH 03435, United States of America"
731895e95be1511e,000061004,Sarnia,-82.4056,42.9806,177.85,CA,ON,Lambton,America/Nipigon,446,Front Street North,Sarnia,N7T 7X1,PM2.5,1004,Inactive,ON1,Ontario Ministry of the Environment,CA,-5,NA,NA,"446 Front Street North, Sarnia, ON N7T 7X1, Canada"
8945853811e96da5,360291014,Tonawanda II,-78.8993,42.9981,182.1,US,NY,Erie,America/New_York,189,Brookside Terrace West,Tonawanda,14150,PM2.5,1014,Active,NY1,New York Dept. of Environmental Conservation,R2,-5,NA,NA,"189 Brookside Terrace West, Tonawanda, NY 14150, United States of America"
c50712e4daa94ec6,191471002,"Emmetsburg, ILCC",-94.693298,43.123299,378.73,US,IA,Palo Alto,America/Chicago,3200,College Drive,Emmetsburg,50536,PM2.5,1002,Active,IA1,Iowa DNR,R7,-6,NA,NA,"Iowa Lakes Community College - Emmetsburg Campus, 3200 College Drive, Emmetsburg, IA 50536, United States of America"
4fefccf07d7b8b19,000050119,Longueuil,-73.4939,45.5231,30.2,CA,QC,Longueuil (agglomeration),America/Toronto,NA,Rue Bourassa,Longueuil,J4K 2C8,PM2.5,0119,Active,QC1,Canada-Quebec1,CA,-5,NA,NA,"Bibliothèque municipale Claude-Henri-Grignon, Rue Bourassa, Longueuil, QC J4K 2C8, Canada"
1a98d5ff786f9d2e,840410670006,Forest Grove Pacific University,-123.10554,45.52483,79.9,US,OR,Washington,America/Los_Angeles,NA,23rd Place,Forest Grove,97116-2872,PM2.5,0670,Active,OR1,Oregon Dept. of Environmental Quality,R10,-8,NA,NA,"23rd Place, Forest Grove, OR 97116-2872, United States of America"
07ac3dbfb3d4efa1,840410510033,Portland Benson High School,-122.651,45.5273,38.7,US,OR,Multnomah,America/Los_Angeles,546,Northeast 12th Avenue,Portland,97232,PM2.5,0510,Inactive,OR1,Oregon Dept. of Environmental Quality,R10,-8,NA,NA,"Benson Polytechnic High School, 546 Northeast 12th Avenue, Portland, OR 97232, United States of America"
6fcbf857f618b0d0,410670004,Hillsboro - Hare Field,-122.972398,45.528501,62.8,US,OR,Washington,America/Los_Angeles,NA,Northeast Linden Avenue,Hillsboro,97123-4201,PM2.5,0004,Active,OR1,Oregon Dept. of Environmental Quality,R10,-8,38900,"Portland-Vancouver-Beaverton, OR-WA","Hare Field, Northeast Linden Avenue, Hillsboro, OR 97123-4201, United States of America"
4bd6ca57439b9560,CC0050135,Caserne 17,-73.637328,45.593325,0,CA,QC,Urban agglomeration of Montreal,America/Toronto,11035,Avenue Hébert,Montreal,H1H 4A3,PM2.5,0135,Active,QC2,Canada-Quebec2,CA,-5,NA,NA,"11035 Avenue Hébert, Montreal, QC H1H 4A3, Canada"
16d2d3136649eeeb,CC0050133,Chenier,-73.541992,45.60176,0,CA,QC,Urban agglomeration of Montreal,America/Toronto,8202,Avenue Chénier,Montreal,H1M 1T4,PM2.5,0133,Inactive,QC2,Canada-Quebec2,CA,-5,NA,NA,"8202 Avenue Chénier, Montreal, QC H1M 1T4, Canada"
e37718067d8c863d,000050133,Chenier,-73.54197,45.60185,13.1,CA,QC,Urban agglomeration of Montreal,America/Toronto,8202,Avenue Chénier,Montreal,H1M 1T4,PM2.5,0133,Inactive,CN1,Environment Canada,CA,-5,NA,NA,"8202 Avenue Chénier, Montreal, QC H1M 1T4, Canada"
f1af1c31329f7d3d,000052401,Parc de la Gatineau - La Pêche,-76.0178,45.6222,192.2,CA,QC,Les Collines-de-l'Outaouais,America/Toronto,NA,Trail 51,La Pêche,J0X 2W0,PM2.5,2401,Active,QC1,Canada-Quebec1,CA,-5,NA,NA,"Trail 51, La Pêche, QC J0X 2W0, Canada"
c5724c6d3f366116,530110023,Vancouver-NE Vancouver Plaza Dr,-122.5901,45.64987,76.9,US,WA,Clark,America/Los_Angeles,NA,Northeast Fourth Plain Boulevard,Vancouver,98662-6624,PM2.5,0023,Inactive,WA1,Washington Department of Ecology,R10,-8,NA,NA,"Burlington Coat Factory, Northeast Fourth Plain Boulevard, Vancouver, WA 98662-6624, United States of America"
51c193c3b5f24c64,000040103,FREDERICTON,-66.6475,45.9578,0,CA,NB,York,America/Moncton,330-332,York Street,Fredericton,E3B 3L7,PM2.5,0103,Inactive,CN1,Environment Canada,CA,-4,NA,NA,"330-332 York Street, Fredericton, NB E3B 3L7, Canada"
6df27e546b9f8801,530150015,Longview-30th Ave,-122.9619,46.1394,12.8,US,WA,Cowlitz,America/Los_Angeles,NA,Hemlock Street,Longview,98632,PM2.5,0015,Active,WA1,Washington Department of Ecology,R10,-8,31020,"Longview, WA","Olympic Elementary School, Hemlock Street, Longview, WA 98632, United States of America"
d21be0e058e87002,530050002,Kennewick-Metaline,-119.2015,46.2183,162,US,WA,Benton,America/Los_Angeles,NA,West John Day Avenue,Pasco,99336-1117,PM2.5,0002,Active,WA1,Washington Department of Ecology,R10,-8,28420,"Kennewick-Richland-Pasco, WA","Tri-Cities Vocational Center, West John Day Avenue, Pasco, WA 99336-1117, United States of America"
adc0451429dab41a,000090302,RED DEER RIVERSIDE DRIVE,-113.7942,52.2989,0,CA,AB,Red Deer (city),America/Edmonton,NA,Riverside Drive,Red Deer,T4N 6Z1,PM2.5,0302,Active,AB1,Alberta Environmental Monitoring and Reporting Agency (AEMERA),CA,-7,NA,NA,"Riverside Drive, Red Deer, AB T4N 6Z1, Canada"
18936a4c3a1b8528,000101702,Quesnel Maple Drive,-122.4506,52.9631,456.3,CA,BC,Cariboo Regional District,America/Vancouver,NA,Mountain Ash Road,Area A (Red Bluff/Quesnel South),V2J 5B7,PM2.5,1702,Inactive,BC1,British Columbia Ministry of Environment,CA,-8,NA,NA,"Quesnel Junior School, Mountain Ash Road, Area A (Red Bluff/Quesnel South), BC V2J 5B7, Canada"
1e5f11a214caf558,800090023,Camarones,-99.1697,19.4684,2234.4,MX,NA,NA,America/Mexico_City,NA,Calle Piña,Mexico City,NA,PM2.5,0023,Active,MXC,Red de Monitoreo de la Calidad del Aire de la Ciudad de Mexico,MX,-6,NA,NA,"Escuela Primaria ""20 de Noviembre"", Calle Piña, Colonia Hogar y seguridad, Mexico City, Mexico"
d3df63d86b5901fe,060190011,Fresno - Garland,-119.77321,36.78538,97,US,CA,Fresno,America/Los_Angeles,3083,East Garland Avenue,Fresno,93726,PM2.5,0011,Active,CA8,California Air Resources Board,R9,-8,NA,NA,"3083 East Garland Avenue, Fresno, CA 93726, United States of America"
1942a7333fe67571,516500004,VA SCHOOL,-76.3992,37.0033,176.9,US,VA,NA,America/New_York,2343,West Pembroke Avenue,Hampton,23661,PM2.5,0004,Inactive,VA1,Virginia Dept. of Environmental Quality,R3,-5,47260,"Virginia Beach-Norfolk-Newport News, VA-NC","2343 West Pembroke Avenue, Hampton, VA 23661, United States of America"
b4bbe9989c3de7c7,060610002,Auburn,-121.103897,38.937801,438.07,US,CA,Placer,America/Los_Angeles,2701,2nd Street,NA,95603,PM2.5,0002,Active,PLA,Placer County APCD,R9,-8,40900,"Sacramento--Arden-Arcade--Roseville, CA","2701 2nd Street, Placer County, CA 95603, United States of America"
123e0a1ca9ac7e83,240313001,Rockville,-77.106903,39.114399,124.4,US,MD,Montgomery,America/New_York,5110,Meadowside Lane,NA,20855,PM2.5,3001,Active,MD1,Maryland Department of the Environment,R3,-5,47900,"Washington-Arlington-Alexandria, DC-VA-MD-WV","5110 Meadowside Lane, Montgomery County, MD 20855, United States of America"
faa35adf517bf839,202090021,WY/KC,-94.6356,39.1175,261.32,US,KS,Wyandotte,America/Chicago,1045,Nebraska Avenue,Kansas City,66102,PM2.5,0021,Active,KS1,Kansas Dept. of Health and Environment,R7,-6,28140,"Kansas City, MO-KS","1045 Nebraska Avenue, Kansas City, KS 66102, United States of America"
3fb962d10658899c,325100020,CC_Armory,-119.766409,39.144804,1428.9,US,NV,NA,America/Los_Angeles,2464,Lewis Drive,Carson City,89701,PM2.5,0020,Active,NV3,Nevada Division of Environmental Protection,R9,-8,NA,NA,"2464 Lewis Drive, Carson City, NV 89701, United States of America"
da7646c66f7d65ef,391510020,Canton,-81.373,40.800717,311.1,US,OH,Stark,America/New_York,451,Piedmont Avenue Northeast,Canton,44702,PM2.5,0020,Active,OH1,Ohio EPA-DAPC,R5,-5,15940,"Canton-Massillon, OH","451 Piedmont Avenue Northeast, Canton, OH 44702, United States of America"
d67ded9d8865a347,550250041,MADISON EAST,-89.3572,43.1008,259.4,US,WI,Dane,America/Chicago,2302,Hoard Street,Madison,53704,PM2.5,0041,Active,WI1,Wisconsin Dept. of Natural Resources,R5,-6,31540,"Madison, WI","2302 Hoard Street, Madison, WI 53704, United States of America"
a52ef4a4ca25ec6c,530110019,Vancouver-MacArthur Blvd,-122.611397,45.624802,90.91,US,WA,Clark,America/Los_Angeles,5802,MacArthur Boulevard,Vancouver,98661,PM2.5,0019,Inactive,WA1,Washington Department of Ecology,R10,-8,38900,"Portland-Vancouver-Beaverton, OR-WA","McLoughlin Middle School, 5802 MacArthur Boulevard, Vancouver, WA 98661, United States of America"
f7fc1565a30da917,000030901,PICTOU,-62.6953,45.6819,0,CA,NS,Pictou,America/Halifax,55,Harbour Drive,Pictou,B0K 1H0,PM2.5,0901,Active,CN1,Environment Canada,CA,-4,NA,NA,"55 Harbour Drive, Pictou, NS B0K 1H0, Canada"
4dd59550991a23c5,410271001,Hood River,-121.5296,45.7035,141.65,US,OR,Hood River,America/Los_Angeles,1601,May Street,Hood River,97031,PM2.5,1001,Inactive,OR1,Oregon Dept. of Environmental Quality,R10,-8,NA,NA,"Hood River Aquatic Center, 1601 May Street, Hood River, OR 97031, United States of America"
d96094d9a218f697,301110087,Billlings Lockwood,-108.426551,45.806357,957.06,US,MT,Yellowstone,America/Denver,2319,Clayton Street,NA,59101,PM2.5,0087,Active,MT1,Montana DEQ,R8,-7,NA,NA,"2319 Clayton Street, Lockwood, MT 59101, United States of America"
27982532a67c65f7,MM0370179,Mobile-Goldendale,-120.813668,45.815778,506.98,US,WA,Klickitat,America/Los_Angeles,525,East Simcoe Drive,Goldendale,98620,PM2.5,0179,Inactive,WA1,Washington Department of Ecology,R10,-8,NA,NA,"Goldendale High School, 525 East Simcoe Drive, Goldendale, WA 98620, United States of America"
13e484bd5331ae6e,000053801,Tingwick,-71.9492,45.9075,266.9,CA,QC,Arthabaska,America/Toronto,NA,NA,NA,NA,PM2.5,3801,Active,QC1,Canada-Quebec1,CA,-5,NA,NA,"Tingwick, QC, Canada"
2bfb33599a12be24,000103202,Golden Helipad,-116.966,51.2975,773.5,CA,BC,Columbia-Shuswap Regional District,America/Edmonton,NA,9th Street South,Golden,V0A 1H0,PM2.5,3202,Active,BC1,British Columbia Ministry of Environment,CA,-8,NA,NA,"Golden Hospital, 9th Street South, Golden, BC V0A 1H0, Canada"
af28949ccf3b56f0,150012016,Pahala,-155.4689,19.2065,277.26,US,HI,Hawaiʻi,Pacific/Honolulu,NA,Mamalahoa Highway,Pahala,96777,PM2.5,2016,Active,HI1,Hawaii State Dept. of Health,R9,-10,25900,"Hilo, HI","Mamalahoa Highway, Pahala, HI 96777, United States of America"
586b0b568b837e7d,800090072,UAM Iztapalapa,-99.0738,19.3607,2222.2,MX,NA,NA,America/Mexico_City,186,Explanada principal,Mexico City,09310,PM2.5,0072,Active,MXC,Red de Monitoreo de la Calidad del Aire de la Ciudad de Mexico,MX,-6,NA,NA,"Edificio T, Explanada principal, Colonia La Purísima, 09310 Mexico City, Mexico"
df160636410d308c,MMHI1LE01,LEILANI,-154.898,19.463989,212.72,US,HI,Hawaiʻi,Pacific/Honolulu,NA,Malama Street,NA,96778,PM2.5,LE01,Inactive,HI1,Hawaii State Dept. of Health,R9,-10,NA,NA,"Malama Street, Leilani Estates, HI 96778, United States of America"
8e496feb9377e9a4,800151041,Tlalnepantla,-99.2045,19.529,2312.5,MX,MEX,Tlalnepantla de Baz,America/Mexico_City,NA,unnamed road,Tlalnepantla,NA,PM2.5,1041,Active,MXC,Red de Monitoreo de la Calidad del Aire de la Ciudad de Mexico,MX,-6,NA,NA,"unnamed road, Tlalnepantla, MEX, Mexico"
a5f9d1c800777cc2,840150012027,KS Hawaii,-155.055038,19.611915,184.71,US,HI,Hawaiʻi,Pacific/Honolulu,NA,Puko Street,NA,96760,PM2.5,0012,Active,HI1,Hawaii State Dept. of Health,R9,-10,NA,NA,"Kamehameha Schools Hawaii Campus, Puko Street, Kurtistown, Hawaiʻi County, HI 96760, United States of America"
f47941f061210f6e,800260006,Nogales ITN,-110.951508,31.291294,0,MX,SON,Municipio de Nogales,America/Hermosillo,NA,Tecnologico,Heroica Nogales,84066,PM2.5,0006,Active,AZ1,Arizona Department of Environmental Quality,R9,-7,NA,NA,"Instituto Tecnologico de Nogales, Tecnologico, 84066 Heroica Nogales, SON, Mexico"
e0802fac46132b4f,280350004,Hattiesburg,-89.287498,31.322779,49.01,US,MS,Forrest,America/Chicago,301,Court Street,Hattiesburg,39401,PM2.5,0004,Active,MS1,Mississippi DEQ,R4,-6,25620,"Hattiesburg, MS","The Crawford House, 301 Court Street, Hattiesburg, MS 39401, United States of America"
6e1231c600aa24fc,130950007,Albany,-84.1002,31.5767,66.8,US,GA,Dougherty,America/New_York,NA,Leonard Avenue,Albany,31705,PM2.5,0007,Active,GA1,Georgia Department of Natural Resources,R4,-5,10500,"Albany, GA","Turner School, Leonard Avenue, Albany, GA 31705, United States of America"
