locationID,fullAQSID,locationName,longitude,latitude,elevation,countryCode,stateCode,countyName,timezone,houseNumber,street,city,zip,AQSID,airnow_stationID,airnow_parameterName,airnow_monitorType,airnow_siteCode,airnow_status,airnow_agencyID,airnow_agencyName,airnow_EPARegion,airnow_GMTOffsetHours,airnow_CBSA_ID,airnow_CBSA_Name,airnow_stateAQSCode,airnow_countyAQSCode,airnow_MSAName,address
61aa22b8558f3212,124CC0010102,St. John's,-52.7115,47.56038,9.8,CA,NL,NA,America/St_Johns,NA,George Street,NA,A1C 1H7,CC0010102,CC0010102,PM2.5,Permanent,0102,Active,NL1,Newfoundland & Labrador DEC,CA,-3.5,NA,NA,00,001,NA,"Dooly's, George Street, St. John's, NL A1C 1H7, Canada"
cec69fd52886ae58,124CC0010301,Cornerbrook,-58.0556,48.9494,0,CA,NL,NA,America/St_Johns,NA,Trailway,NA,A2H 3P5,000010301,CC0010301,PM2.5,Permanent,0301,Active,NL1,Newfoundland & Labrador DEC,CA,-4,NA,NA,00,001,NA,"Trailway, Corner Brook, NL A2H 3P5, Canada"
c8ac67730ec3cc8e,124CC0010401,Mount Pearl,-52.7948,47.50513,0,CA,NL,NA,America/St_Johns,NA,Mortimer Drive,NA,A1N 2C4,CC0010401,CC0010401,PM2.5,Permanent,0401,Active,NL1,Newfoundland & Labrador DEC,CA,-3.5,NA,NA,00,001,NA,"Mortimer Drive, Mount Pearl, NL A1N 2C4, Canada"
26a9ea056420ff05,124CC0010501,Grand Falls Windsor,-55.6597,48.92696,0,CA,NL,NA,America/St_Johns,NA,Scott Avenue,Grand Falls-Windsor,A2A 2C9,CC0010501,CC0010501,PM2.5,Permanent,0501,Active,NL1,Newfoundland & Labrador DEC,CA,-3.5,NA,NA,00,001,NA,"Scott Avenue, Grand Falls-Windsor, NL A2A 2C9, Canada"
204c8bc585169544,124CC0010602,MacPherson Avenue - Corner Brook,-57.92207,48.95224,0,CA,NL,NA,America/St_Johns,NA,MacPherson Avenue,NA,A2H 6J7,CC0010602,CC0010602,PM2.5,Permanent,0602,Active,NL1,Newfoundland & Labrador DEC,CA,-3.5,NA,NA,00,001,NA,"MacPherson Avenue, Corner Brook, NL A2H 6J7, Canada"
3f27c9a34de1e4aa,124CC0010901,Marystown/Burin,-55.198521,47.098991,0.9,CA,NL,NA,America/St_Johns,NA,Main Street,Burin,A0E 1G0,CC0010901,CC0010901,PM2.5,Permanent,0901,Active,NL1,Newfoundland & Labrador DEC,CA,-3.5,NA,NA,00,001,NA,"Main Street, Burin, NL A0E 1G0, Canada"
05d606b03b83e7f2,124CC0011001,LABRADOR CITY,-66.9156,52.9528,0,CA,NL,NA,America/Goose_Bay,NA,Smokey Mountain Road,Labrador City,A2V 1L8,000011001,CC0011001,PM2.5,Permanent,1001,Active,NL1,Newfoundland & Labrador DEC,CA,-4,NA,NA,00,001,NA,"Smokey Mountain Road, Labrador City, NL A2V 1L8, Canada"
30b223c718a5bbec,124CC0011002,FIREHALL-LABRADORCITY2,-66.910245,52.94548,0,CA,NL,NA,America/Goose_Bay,NA,Hudson Drive,Labrador City,A2V 1L8,CC0011002,CC0011002,PM2.5,Permanent,1002,Active,NL1,Newfoundland & Labrador DEC,CA,-4,NA,NA,00,001,NA,"Hudson Drive, Labrador City, NL A2V 1L8, Canada"
67346b6fa3291995,124000020104,CHARLOTTETOWN,-63.1306,46.2406,19.8,CA,PE,NA,America/Halifax,8,Williams Lane,NA,C1A 4M3,000020104,000020104,PM2.5,Permanent,0104,Active,PE1,Canada-Prince Edward Island1,CA,-4,NA,NA,00,002,NA,"8 Williams Lane, Charlottetown, PE C1A 4M3, Canada"
80e8ba20dbf1f4c5,124000020301,WELLINGTON,-63.9869,46.4783,33.9,CA,PE,NA,America/Halifax,32,Hackmatack Road,NA,C0B 1Y0,000020301,000020301,PM2.5,Permanent,0301,Active,PE1,Canada-Prince Edward Island1,CA,-4,NA,NA,00,002,NA,"32 Hackmatack Road, Wellington Centre, PE C0B 1Y0, Canada"
005afb7b5c0556d5,124000020401,SOUTHAMPTON,-62.5828,46.3864,15.3,CA,PE,NA,America/Halifax,NA,Cardigan Road,NA,C0A 2A0,000020401,000020401,PM2.5,Permanent,0401,Active,PE1,Canada-Prince Edward Island1,CA,-4,NA,NA,00,002,NA,"Cardigan Road, Cardigan, PE C0A 2A0, Canada"
0f73ba8032553a45,124000030113,JOHNSTON BUILDING -,-63.573689,44.647175,29,CA,NS,NA,America/Halifax,1672,Granville Street,NA,B3J 1X8,000030113,000030113,PM2.5,Permanent,0113,Active,NS1,Canada-Nova Scotia1,CA,-4,NA,NA,00,003,NA,"J.W. Johnston Building, 1672 Granville Street, Halifax, NS B3J 1X8, Canada"
25afd7e6166c1266,124000030120,Lake Major,-63.48076,44.7198,0,CA,NS,NA,America/Halifax,341,Lake Major Water Treatment Plant Access,NA,B2Z 1A6,000030120,000030120,PM2.5,Permanent,0120,Active,NS1,Canada-Nova Scotia1,CA,-4,NA,NA,00,003,NA,"Lake Major Water Treatment Plant, 341 Lake Major Water Treatment Plant Access, Lake Loon, NS B2Z 1A6, Canada"
ddae8cae9aa88ca3,124000030201,PORT HAWKESBURY,-61.362122,45.614028,0,CA,NS,NA,America/Glace_Bay,NA,Embree Street,Port Hawkesbury,B9A 2R7,000030201,000030201,PM2.5,Permanent,0201,Active,NS1,Canada-Nova Scotia1,CA,-4,NA,NA,00,003,NA,"Customs House, Embree Street, Port Hawkesbury, NS B9A 2R7, Canada"
934784dfeb031f46,124000030310,SYDNEY,-60.172575,46.142317,40,CA,NS,NA,America/Glace_Bay,71,Welton Street,NA,B1P 5R9,000030310,000030310,PM2.5,Permanent,0310,Active,NS1,Canada-Nova Scotia1,CA,-4,NA,NA,00,003,NA,"71 Welton Street, Sydney, NS B1P 5R9, Canada"
69b72e78a8f90518,124000030701,AYLESFORD MOUNTAIN,-64.84025,45.07254,230,CA,NS,NA,America/Halifax,NA,Brow Of Mountain Road West,NA,B0P 1C0,000030701,000030701,PM2.5,Permanent,0701,Active,NS1,Canada-Nova Scotia1,CA,-4,NA,NA,00,003,NA,"Brow Of Mountain Road West, Aylesford Mountain, NS B0P 1C0, Canada"
43f27671f8494d01,124000030901,PICTOU,-62.696575,45.681744,0,CA,NS,NA,America/Halifax,NA,Beeches Road,Pictou,B0K 1H0,000030901,000030901,PM2.5,Permanent,0901,Active,NS1,Canada-Nova Scotia1,CA,-4,NA,NA,00,003,NA,"School Of Fisheries, Beeches Road, Pictou, NS B0K 1H0, Canada"
3531cc87a9215582,124000031101,KENTVILLE,-64.477425,45.067284,0,CA,NS,NA,America/Halifax,NA,unnamed road,Kentville,B4N 3C7,000031101,000031101,PM2.5,Permanent,1101,Active,NS1,Canada-Nova Scotia1,CA,-4,NA,NA,00,003,NA,"unnamed road, Kentville, NS B4N 3C7, Canada"
7eb65348bed0b93d,124CC0040104,FREDERICTON-NEEDHAM ST.,-66.645562,45.957344,0,CA,NB,NA,America/Moncton,486,Rue Needham,NA,E3B 3X2,000040104,CC0040104,PM2.5,Permanent,0104,Active,NB1,Canada-New Brunswick1,CA,-4,NA,NA,00,004,NA,"486 Rue Needham, Fredericton, NB E3B 3X2, Canada"
6df8614113d2df97,124CC0040203,FOREST HILLS,-66.008333,45.308778,57,CA,NB,NA,America/Moncton,56,Mountain Road,NA,E2J 2S6,000040203,CC0040203,PM2.5,Permanent,0203,Active,NB1,Canada-New Brunswick1,CA,-4,NA,NA,00,004,NA,"56 Mountain Road, Saint John, NB E2J 2S6, Canada"
01132b6183512f84,124CC0040207,SAINT JOHN WEST,-66.079931,45.25315,54.9,CA,NB,NA,America/Moncton,NA,Lancaster Avenue,NA,E2M 2V4,000040207,CC0040207,PM2.5,Permanent,0207,Active,NB1,Canada-New Brunswick1,CA,-4,NA,NA,00,004,NA,"Hillcrest Baptist Church, Lancaster Avenue, Saint John, NB E2M 2V4, Canada"
185bbd7b8091df81,124CC0040209,CASTLE ST. SAINT JO,-66.056111,45.280278,29.9,CA,NB,NA,America/Moncton,NA,Castle Street,NA,E2L 5A3,000040209,CC0040209,PM2.5,Permanent,0209,Active,NB1,Canada-New Brunswick1,CA,-4,NA,NA,00,004,NA,"Post-Secondary Education, Castle Street, Saint John, NB E2L 5A3, Canada"
6cb10a545d49e75f,124CC0040302,MONCTON,-64.789639,46.101389,0,CA,NB,NA,America/Moncton,NA,Thanet Street,NA,E1C 2Z3,000040302,CC0040302,PM2.5,Permanent,0302,Active,NB1,Canada-New Brunswick1,CA,-4,NA,NA,00,004,NA,"Thanet Street, Moncton, NB E1C 2Z3, Canada"
4568c0ba3a87ca80,124CC0040801,CANTERBURY,-67.4778,45.9533,151.47,CA,NB,NA,America/Moncton,NA,122,NA,C1B 1M2,000040801,CC0040801,PM2.5,Permanent,0801,Active,NB1,Canada-New Brunswick1,CA,-4,NA,NA,00,004,NA,"122, York County, NB C1B 1M2, Canada"
d5b563a7529b9cfd,124CC0040901,ST ANDREWS,-67.073889,45.086944,49.4,CA,NB,NA,America/Moncton,NA,Marine Science Drive,Saint Andrews,E5B 0E4,000040901,CC0040901,PM2.5,Permanent,0901,Active,NB1,Canada-New Brunswick1,CA,-4,NA,NA,00,004,NA,"Marine Science Drive, Town of Saint Andrews, NB E5B 0E4, Canada"
d344179b47fb3b55,124CC0041302,BATHURST,-65.633528,47.609528,29.9,CA,NB,NA,America/Moncton,NA,Narcisse Lane,NA,E2A 1Y2,000041302,CC0041302,PM2.5,Permanent,1302,Active,NB1,Canada-New Brunswick1,CA,-4,NA,NA,00,004,NA,"Narcisse Lane, Bathurst, NB E2A 1Y2, Canada"
6e183557ef3b0da5,124CC0041401,CAMPBELLTON,-66.683511,47.999336,0,CA,NB,NA,America/Moncton,NA,Val d'Amour Road,NA,E3N 5B9,000041401,CC0041401,PM2.5,Permanent,1401,Active,NB1,Canada-New Brunswick1,CA,-4,NA,NA,00,004,NA,"Val d'Amour Road, Campbellton, NB E3N 5B9, Canada"
9f2a9a1f8b550294,124CC0041501,EDMUNDSTON QUEEN ST.,-68.322302,47.363195,155.43,CA,NB,NA,America/Moncton,25,Queen Street,NA,E3V 0E7,000041501,CC0041501,PM2.5,Permanent,1501,Active,NB1,Canada-New Brunswick1,CA,-4,NA,NA,00,004,NA,"25 Queen Street, Edmundston, NB E3V 0E7, Canada"
6e34c1fa88881a4b,124CC0041601,Miramichi,-65.52049,47.02567,0,CA,NB,NA,America/Moncton,NA,Gretna Green Drive,NA,E1V 5L7,000041601,124CC0041601,PM2.5,Permanent,1601,Active,NB1,Canada-New Brunswick1,CA,-4,NA,NA,00,004,NA,"Gretna Green Elementary School, Gretna Green Drive, Miramichi, NB E1V 5L7, Canada"
c4c9fe71049e9d53,124000050113,Laval - Chomedey,-73.7472,45.5472,40.3,CA,QC,NA,America/Toronto,NA,Boulevard Pie X,NA,H7V 3E9,000050113,000050113,PM2.5,Permanent,0113,Active,QC1,Canada-Quebec1,CA,-5,NA,NA,00,005,NA,"Aréna Chomedey, Boulevard Pie X, Laval, QC H7V 3E9, Canada"
4fefccf07d7b8b19,124000050119,Longueuil,-73.4939,45.5231,30.2,CA,QC,NA,America/Toronto,NA,Rue Bourassa,NA,J4K 2C8,000050119,000050119,PM2.5,Permanent,0119,Active,QC1,Canada-Quebec1,CA,-5,NA,NA,00,005,NA,"Bibliothèque municipale Claude-Henri-Grignon, Rue Bourassa, Longueuil, QC J4K 2C8, Canada"
48215f31954269d4,124000050122,Brossard - Parc Sorbonne,-73.468631,45.44866,0,CA,QC,NA,America/Toronto,8245,Boulevard Taschereau,Brossard,J4Y 1A4,000050122,000050122,PM2.5,Permanent,0122,Active,QC1,Canada-Quebec1,CA,-5,NA,NA,00,005,NA,"Casa Grecque, 8245 Boulevard Taschereau, Brossard, QC J4Y 1A4, Canada"
feafea7912f66dfa,124000050137,Terrebonne - Parc Vaillant,-73.65776,45.70476,34.8,CA,QC,NA,America/Toronto,NA,Rue Vaillant,Terrebonne,J6X 1N6,000050137,000050137,PM2.5,Permanent,0137,Active,QC1,Canada-Quebec1,CA,-5,NA,NA,00,005,NA,"École Esther-Blondin, Rue Vaillant, Terrebonne, QC J6X 1N6, Canada"
a81eec36b2ecf87d,124000050204,Gatineau - Hull,-75.7261,45.4369,0,CA,QC,NA,America/Toronto,NA,Autoroute de l'Outaouais,NA,J8Y 2L7,000050204,000050204,PM2.5,Permanent,0204,Active,QC1,Canada-Quebec1,CA,-5,NA,NA,00,005,NA,"Autoroute de l'Outaouais, Gatineau, QC J8Y 2L7, Canada"
3a9e075b3dea56c5,124000050308,Québec - Vieux-Limoilou,-71.2208,46.8214,6.1,CA,QC,NA,America/Toronto,600,Rue des Sables,NA,G1J 2Y1,000050308,000050308,PM2.5,Permanent,0308,Active,QC1,Canada-Quebec1,CA,-5,NA,NA,00,005,NA,"600 Rue des Sables, Quebec, QC G1J 2Y1, Canada"
729a164fac46b2a7,124000050310,Québec - Collège St-Charles Garnier,-71.2461,46.7969,0,CA,QC,NA,America/Toronto,1116,Rue Raymond-Casgrain,NA,G1S 4Z3,000050310,000050310,PM2.5,Permanent,0310,Active,QC1,Canada-Quebec1,CA,-5,NA,NA,00,005,NA,"1116 Rue Raymond-Casgrain, Quebec, QC G1S 4Z3, Canada"
0d566a99cf2dd839,124000050311,Québec - École Les Primevères,-71.36972,46.77417,10.7,CA,QC,NA,America/Toronto,NA,Rue Félix-Antoine-Savard,NA,G2G 2R2,000050311,000050311,PM2.5,Permanent,0311,Active,QC1,Canada-Quebec1,CA,-5,NA,NA,00,005,NA,"École Primaire les Primevères, Rue Félix-Antoine-Savard, Quebec, QC G2G 2R2, Canada"
00de8a888e1c4965,124000050314,Québec - Charlesbourg,-71.2572,46.8615,0,CA,QC,NA,America/Toronto,583,74e Rue Est,NA,G1H 7M4,124000050314,124000050314,PM2.5,Permanent,0314,Active,QC1,Canada-Quebec1,CA,-5,NA,NA,NA,NA,NA,"583 74e Rue Est, Quebec, QC G1H 7M4, Canada"
5d0b46facf90b32f,124000050504,Saguenay - UQAC,-71.0528,48.4153,93.9,CA,QC,NA,America/Toronto,NA,Boulevard Talbot,NA,G7H 4B3,000050504,000050504,PM2.5,Permanent,0504,Active,QC1,Canada-Quebec1,CA,-5,NA,NA,00,005,NA,"Université du Québec à Chicoutimi, Boulevard Talbot, Saguenay, QC G7H 4B3, Canada"
0eb5c915b81f2a1b,124000050604,Rouyn-Noranda - Parc Tremblay,-78.9833,48.2344,292.8,CA,QC,NA,America/Toronto,517,Avenue Tremblay,Rouyn-Noranda,J9X 6M6,000050604,000050604,PM2.5,Permanent,0604,Active,QC1,Canada-Quebec1,CA,-5,NA,NA,00,005,NA,"517 Avenue Tremblay, Rouyn-Noranda, QC J9X 6M6, Canada"
e2e3a0919cc8c201,124000050803,Trois-Rivières - École MEES,-72.546187,46.357175,0,CA,QC,NA,America/Toronto,NA,Rue Nicolas Perrot,NA,G9A 1C2,000050803,000050803,PM2.5,Permanent,0803,Active,QC1,Canada-Quebec1,CA,-5,NA,NA,00,005,NA,"Mauricie English Elementary School, Rue Nicolas Perrot, Trois-Rivières, QC G9A 1C2, Canada"
da3df94210b96764,124000051111,Drummondville - Stade Jacques-Desautels,-72.50318,45.8713,0,CA,QC,NA,America/Toronto,877,Rue Marchand,NA,J2C 7S5,124000051111,124000051111,PM2.5,Permanent,1111,Active,QC1,Canada-Quebec1,CA,-5,NA,NA,NA,NA,NA,"877 Rue Marchand, Drummondville, QC J2C 7S5, Canada"
dba3d373ead79de5,124000051201,Shawinigan - Saint-Marc,-72.7361,46.5544,112.9,CA,QC,NA,America/Toronto,2464,Avenue Laval,NA,G9N 4E5,000051201,000051201,PM2.5,Permanent,1201,Active,QC1,Canada-Quebec1,CA,-5,NA,NA,00,005,NA,"2464 Avenue Laval, Shawinigan, QC G9N 4E5, Canada"
f03ca661c5c40a9a,124000051501,Saint-Zéphirin-de-Courval,-72.66,46.0419,53.4,CA,QC,NA,America/Toronto,NA,Rang Saint-Michel,NA,J2B 8A8,000051501,000051501,PM2.5,Permanent,1501,Active,QC1,Canada-Quebec1,CA,-5,NA,NA,00,005,NA,"Rang Saint-Michel, Drummondville, QC J2B 8A8, Canada"
0001770edc620bb8,124000052001,Charette,-72.8928,46.4425,116.8,CA,QC,NA,America/Toronto,NA,2e Rang Sud,NA,G0X 2K0,000052001,000052001,PM2.5,Permanent,2001,Active,QC1,Canada-Quebec1,CA,-5,NA,NA,00,005,NA,"2e Rang Sud, Charette, QC G0X 2K0, Canada"
9ea50ffaaed4b5f7,124000052201,Saint-Simon,-73.4686,45.4431,40.3,CA,QC,NA,America/Toronto,8353,Avenue Océanie,Brossard,J4Y 2Z9,000052201,000052201,PM2.5,Permanent,2201,Active,QC1,Canada-Quebec1,CA,-5,NA,NA,00,005,NA,"8353 Avenue Océanie, Brossard, QC J4Y 2Z9, Canada"
117c15e8913e97be,124000052301,Saint-Faustin-Lac-Carré,-74.4819,46.035,400.5,CA,QC,NA,America/Toronto,NA,Beeches,NA,NA,000052301,000052301,PM2.5,Permanent,2301,Active,QC1,Canada-Quebec1,CA,-5,NA,NA,00,005,NA,"Beeches, Saint-Faustin–Lac-Carré, QC, Canada"
f1af1c31329f7d3d,124000052401,Parc de la Gatineau - La Pêche,-76.0178,45.6222,192.2,CA,QC,NA,America/Toronto,NA,Trail 51,NA,J0X 2W0,000052401,000052401,PM2.5,Permanent,2401,Active,QC1,Canada-Quebec1,CA,-5,NA,NA,00,005,NA,"Trail 51, La Pêche, QC J0X 2W0, Canada"
963dfff8f48bdad8,124000052701,Temiscaming,-79.0997,46.72139,80.5,CA,QC,NA,America/Toronto,NA,Avenue Elm,NA,J0Z 3R0,000052701,000052701,PM2.5,Permanent,2701,Active,QC1,Canada-Quebec1,CA,-5,NA,NA,00,005,NA,"École Gilbert Théberge, Avenue Elm, Témiscaming, QC J0Z 3R0, Canada"
90005cd168986e23,124000052801,Auclair,-68.7072,47.73333,99.1,CA,QC,NA,America/Toronto,1058,Chemin du Rang-Saint-Grégoire Nord,NA,G0L 1A0,000052801,000052801,PM2.5,Permanent,2801,Active,QC1,Canada-Quebec1,CA,-5,NA,NA,00,005,NA,"1058 Chemin du Rang-Saint-Grégoire Nord, Auclair, QC G0L 1A0, Canada"
660dd1eac2bc6d70,124000053201,Rés. Faun. Ashuapmushuan - Pémonka,-72.7428,48.8183,249.5,CA,QC,NA,America/Toronto,NA,NA,NA,G8J 1G7,000053201,000053201,PM2.5,Permanent,3201,Active,QC1,Canada-Quebec1,CA,-5,NA,NA,00,005,NA,"La Doré, QC G8J 1G7, Canada"
5cc73be4647f0f3c,124000053301,Deschambault,-71.9678,46.6822,53.4,CA,QC,NA,America/Toronto,NA,3e Rang,NA,G0A 1S0,000053301,000053301,PM2.5,Permanent,3301,Active,QC1,Canada-Quebec1,CA,-5,NA,NA,00,005,NA,"3e Rang, Deschambault-Grondines, QC G0A 1S0, Canada"
e50b9945708fd7cc,124000053601,Notre-Dame-du-Rosaire,-70.4528,46.8508,421.8,CA,QC,NA,America/Toronto,247,Rang Saint-Louis,NA,NA,000053601,000053601,PM2.5,Permanent,3601,Active,QC1,Canada-Quebec1,CA,-5,NA,NA,00,005,NA,"247 Rang Saint-Louis, Notre-Dame-du-Rosaire, QC, Canada"
3e1a13252341cc74,124000053701,Saint-Hilaire-de-Dorset,-70.8597,45.8156,514.2,CA,QC,NA,America/Toronto,NA,Rue Principale,NA,NA,000053701,000053701,PM2.5,Permanent,3701,Active,QC1,Canada-Quebec1,CA,-5,NA,NA,00,005,NA,"Rue Principale, Saint-Hilaire-de-Dorset, QC, Canada"
13e484bd5331ae6e,124000053801,Tingwick,-71.9492,45.9075,266.9,CA,QC,NA,America/Toronto,NA,NA,NA,NA,000053801,000053801,PM2.5,Permanent,3801,Active,QC1,Canada-Quebec1,CA,-5,NA,NA,00,005,NA,"Tingwick, QC, Canada"
e18d606dcf5e73a3,124000054401,Saint-Anicet,-74.2833,45.1167,49.4,CA,QC,NA,America/Toronto,NA,Chemin de la Rivière-La Guerre,NA,J0S 1P0,000054401,000054401,PM2.5,Permanent,4401,Active,QC1,Canada-Quebec1,CA,-5,NA,NA,00,005,NA,"Chemin de la Rivière-La Guerre, Saint-Anicet, QC J0S 1P0, Canada"
587be8c6e5d0b072,124000054703,Bécancour,-72.4333,46.35,7.9,CA,QC,NA,America/Toronto,8372,Boulevard Bécancour,Bécancour,G9H 3A5,000054703,000054703,PM2.5,Permanent,4703,Active,QC1,Canada-Quebec1,CA,-5,NA,NA,00,005,NA,"8372 Boulevard Bécancour, Bécancour, QC G9H 3A5, Canada"
e8807bf768587eb7,124000054901,La Patrie - Ditton,-71.2514,45.3733,477.9,CA,QC,NA,America/Toronto,NA,Chemin du Petit Canada Ouest,NA,J0B 1Y0,000054901,000054901,PM2.5,Permanent,4901,Active,QC1,Canada-Quebec1,CA,-5,NA,NA,00,005,NA,"Chemin du Petit Canada Ouest, La Patrie, QC J0B 1Y0, Canada"
a425e90fd620c027,124000055001,Mont-Saint-Michel,-75.4319,46.7686,261.7,CA,QC,NA,America/Toronto,NA,4e rang de Gravel,NA,NA,000055001,000055001,PM2.5,Permanent,5001,Active,QC1,Canada-Quebec1,CA,-5,NA,NA,00,005,NA,"4e rang de Gra vel, Ferme-Neuve, QC, Canada"
6c2ba16239fc6166,124000055101,Senneterre,-77.199700000000007,48.4325,94.2,CA,QC,NA,America/Toronto,NA,Chemin du Chalet,NA,NA,000055101,000055101,PM2.5,Permanent,5101,Active,QC1,Canada-Quebec1,CA,-5,NA,NA,00,005,NA,"Chemin du Cha let, Senneterre (paroisse), QC, Canada"
d98387d4f85f77f2,124000055301,Saint-Jean-sur-Richelieu - L'Acadie,-73.3489,45.29417,14.6,CA,QC,NA,America/Toronto,NA,Route 219,NA,J2Y 1C4,000055301,000055301,PM2.5,Permanent,5301,Active,QC1,Canada-Quebec1,CA,-5,NA,NA,00,005,NA,"Route 219, Saint-Jean-sur-Richelieu, QC J2Y 1C4, Canada"
dc319039cc59c449,124000055401,Trois-Rivières - Cap-de-la-Madelaine,-72.510042,46.362425,0,CA,QC,NA,America/Toronto,67,Rue Dorval,NA,G8T 5X7,000055401,000055401,PM2.5,Permanent,5401,Active,QC1,Canada-Quebec1,CA,-5,NA,NA,00,005,NA,"67 Rue Dorval, Trois-Rivières, QC G8T 5X7, Canada"
c40df6fdd620aa1e,124000055702,Lévis - Parc Georges Maranda,-71.16834,46.80238,0,CA,QC,NA,America/Toronto,6208,Boulevard Guillaume-Couture,NA,G6V 8N3,000055702,000055702,PM2.5,Permanent,5702,Active,QC1,Canada-Quebec1,CA,-5,NA,NA,00,005,NA,"6208 Boulevard Guillaume-Couture, Lévis, QC G6V 8N3, Canada"
6697d2a880b369e3,124000056001,Radisson,-77.74102,53.69218,0,CA,QC,NA,America/Toronto,NA,Route de la Baie-James,NA,NA,124000056001,124000056001,PM2.5,Permanent,6001,Active,QC1,Canada-Quebec1,CA,-5,NA,NA,NA,NA,NA,"Route de la Baie-James, Jamésie, QC, Canada"
3341444d522c0cea,124000060104,Ottawa,-75.6764,45.4322,0,CA,ON,NA,America/Toronto,517,Besserer Street,NA,K1N 6H3,000060104,000060104,PM2.5,Permanent,0104,Active,ON1,Ontario Ministry of the Environment,CA,-5,NA,NA,00,006,NA,"517 Besserer Street, (Old) Ottawa, ON K1N 6H3, Canada"
3e5ef03d4d86b3ce,124000060204,Windsor Downtown,-83.0433,42.3144,0,CA,ON,NA,America/Toronto,NA,Bruce Avenue,NA,N9A 5P8,000060204,000060204,PM2.5,Permanent,0204,Active,ON1,Ontario Ministry of the Environment,CA,-5,NA,NA,00,006,NA,"Bruce Avenue, Windsor, ON N9A 5P8, Canada"
8154086e1bb1c775,124000060304,Kingston,-76.521128,44.219867,0,CA,ON,NA,America/Toronto,724,King Street West,NA,K7M 2J9,000060304,000060304,PM2.5,Permanent,0304,Active,ON1,Ontario Ministry of the Environment,CA,-5,NA,NA,00,006,NA,"724 King Street West, Kingston, ON K7M 2J9, Canada"
91daf49715f221d3,124000060445,Toronto Downtown,-79.38908,43.64543,85.1,CA,ON,NA,America/Toronto,221,Wellington Street West,NA,M5V 3C7,124000060445,124000060445,PM2.5,Permanent,0445,Active,ON1,Ontario Ministry of the Environment,CA,-5,NA,NA,NA,NA,NA,"221 Wellington Street West, Toronto, ON M5V 3C7, Canada"
ef947809bb58c146,124000060512,Hamilton Downtown,-79.8617,43.256100000000004,91.27,CA,ON,NA,America/Toronto,174,Rebecca Street,NA,L8R 3M9,000060512,000060512,PM2.5,Permanent,0512,Active,ON1,Ontario Ministry of the Environment,CA,-5,NA,NA,00,006,NA,"174 Rebecca Street, Hamilton, ON L8R 3M9, Canada"
388ad922b32535a8,124000060610,Sudbury,-81.003105,46.491941,0,CA,ON,NA,America/Toronto,NA,Applegrove Street,NA,P3C 1N2,000060610,000060610,PM2.5,Permanent,0610,Active,ON1,Ontario Ministry of the Environment,CA,-5,NA,NA,00,006,NA,"Jubilee Centre, Applegrove Street, Greater Sudbury, ON P3C 1N2, Canada"
24a8c9e6f7f8a295,124000060709,Sault Ste Marie,-84.3094,46.5331,242.99,CA,ON,NA,America/Toronto,NA,Sault College Laneway,NA,P6B 4Z5,000060709,000060709,PM2.5,Permanent,0709,Active,ON1,Ontario Ministry of the Environment,CA,-5,NA,NA,00,006,NA,"Sault College, Sault College Laneway, Sault Ste. Marie, ON P6B 4Z5, Canada"
2c3e461f4269e348,124000060904,London,-81.200858,42.974461,244.83,CA,ON,NA,America/Toronto,15,Tommy Hunter Way,NA,N5Z 1V5,000060904,000060904,PM2.5,Permanent,0904,Active,ON1,Ontario Ministry of the Environment,CA,-5,NA,NA,00,006,NA,"15 Tommy Hunter Way, London, ON N5Z 1V5, Canada"
58bf35c12f4be731,124000061009,Sarnia,-82.395341,42.990263,182.6,CA,ON,NA,America/Nipigon,495,Errol Road West,NA,N7V 1X5,000061009,000061009,PM2.5,Permanent,1009,Active,ON1,Ontario Ministry of the Environment,CA,-5,NA,NA,00,006,NA,"495 Errol Road West, Sarnia, ON N7V 1X5, Canada"
49bc98e480cd79d8,124000061104,Peterborough,-78.35,44.3,0,CA,ON,NA,America/Toronto,1,Hospital Drive,NA,K9J 7C6,000061104,000061104,PM2.5,Permanent,1104,Active,ON1,Ontario Ministry of the Environment,CA,-5,NA,NA,00,006,NA,"Peterborough Regional Health Centre, 1 Hospital Drive, Peterborough, ON K9J 7C6, Canada"
c77bc1b5bd3e2dd7,124000061201,Cornwall,-74.7394,45.0294,52.88,CA,ON,NA,America/Toronto,107,Eleventh Street West,NA,K6H 6R3,000061201,000061201,PM2.5,Permanent,1201,Active,ON1,Ontario Ministry of the Environment,CA,-5,NA,NA,00,006,NA,"107 Eleventh Street West, Cornwall, ON K6H 6R3, Canada"
6dab849059e60788,124000061302,St. Catharines,-79.235,43.1583,104.86,CA,ON,NA,America/Toronto,105,Westchester Avenue,NA,L2R 3M1,000061302,000061302,PM2.5,Permanent,1302,Active,ON1,Ontario Ministry of the Environment,CA,-5,NA,NA,00,006,NA,"105 Westchester Avenue, St. Catharines, ON L2R 3M1, Canada"
51cd792b34086ebc,124000061402,Brantford,-80.2961,43.1403,0,CA,ON,NA,America/Toronto,387,Grand River Avenue,NA,N3T 5B1,000061402,000061402,PM2.5,Permanent,1402,Active,ON1,Ontario Ministry of the Environment,CA,-5,NA,NA,00,006,NA,"387 Grand River Avenue, Brantford, ON N3T 5B1, Canada"
74266bcf42678e40,124000061502,Kitchener,-80.5044,43.4419,0,CA,ON,NA,America/Toronto,29,West Avenue,NA,N2P 3B5,000061502,000061502,PM2.5,Permanent,1502,Active,ON1,Ontario Ministry of the Environment,CA,-5,NA,NA,00,006,NA,"Chelsea Estates, 29 West Avenue, Kitchener, ON N2P 3B5, Canada"
b98f1a8818dca402,124000062001,North Bay,-79.4453,46.3175,0,CA,ON,NA,America/Toronto,NA,Olive Street West,NA,P1B 4C8,000062001,000062001,PM2.5,Permanent,2001,Active,ON1,Ontario Ministry of the Environment,CA,-5,NA,NA,00,006,NA,"Food Basics, Olive Street West, North Bay, ON P1B 4C8, Canada"
2e5fc73cd8094283,124000062501,Tiverton,-81.5753,44.2994,0,CA,ON,NA,America/Toronto,NA,Albert Road,Kincardine,N0G 2T0,000062501,000062501,PM2.5,Permanent,2501,Active,ON1,Ontario Ministry of the Environment,CA,-5,NA,NA,00,006,NA,"Albert Road, Kincardine, ON N0G 2T0, Canada"
313c36a3df064ffa,124000063301,Dorset,-78.9314,45.2211,0,CA,ON,NA,America/Nipigon,NA,Bellwood Acres,NA,NA,000063301,000063301,PM2.5,Permanent,3301,Active,ON1,Ontario Ministry of the Environment,CA,-5,NA,NA,00,006,NA,"Bellwood Acres, Lake of Bays Township, ON, Canada"
0fca2c026be78eef,124000063701,Grand Bend,-81.7425,43.3306,0,CA,ON,NA,America/Nipigon,71047,Bluewater Highway,NA,N0M 1T0,000063701,000063701,PM2.5,Permanent,3701,Active,ON1,Ontario Ministry of the Environment,CA,-5,NA,NA,00,006,NA,"71047 Bluewater Highway, South Huron, ON N0M 1T0, Canada"
4ad9034a9cf1a451,124000065001,Barrie,-79.702306,44.382361,0,CA,ON,NA,America/Nipigon,83,Perry Street,NA,L4N 2C4,000065001,000065001,PM2.5,Permanent,5001,Active,ON1,Ontario Ministry of the Environment,CA,-5,NA,NA,00,006,NA,"83 Perry Street, Barrie, ON L4N 2C4, Canada"
c78c4cb81f8d3940,124000065201,Parry Sound,-80.0378,45.3378,0,CA,ON,NA,America/Nipigon,7 Unit B,Bay Street,Parry Sound,P2A 1S3,000065201,000065201,PM2.5,Permanent,5201,Active,ON1,Ontario Ministry of the Environment,CA,-5,NA,NA,00,006,NA,"Ontario Provincial Police - West Parry Sound Detachment, 7 Unit B Bay Street, Parry Sound, ON P2A 1S3, Canada"
4acfa0eeaf937a08,124000065301,Port Stanley,-81.1647,42.6725,211.9,CA,ON,NA,America/Nipigon,NA,Pumping Station Service Road,NA,N5L 1J1,000065301,000065301,PM2.5,Permanent,5301,Active,ON1,Ontario Ministry of the Environment,CA,-5,NA,NA,00,006,NA,"Pumping Station Service Road, Central Elgin, ON N5L 1J1, Canada"
06f4590ac3218a7c,124000065401,Belleville,-77.3956,44.1503,0,CA,ON,NA,America/Toronto,NA,Dundas Street West,NA,K8P 4E4,000065401,000065401,PM2.5,Permanent,5401,Active,ON1,Ontario Ministry of the Environment,CA,-5,NA,NA,00,006,NA,"Belleville Seventh Day Adventist Church, Dundas Street West, Belleville, ON K8P 4E4, Canada"
e918c5f6490b092a,124000065801,Chatham,-82.2086,42.4033,14.9,CA,ON,NA,America/Nipigon,NA,Sussex Street,NA,N7L 3T5,000065801,000065801,PM2.5,Permanent,5801,Active,ON1,Ontario Ministry of the Environment,CA,-5,NA,NA,00,006,NA,"Chatham-Kent Superior Court, Sussex Street, Chatham, ON N7L 3T5, Canada"
2791ece930ba8e09,124000070118,Winnipeg_Scotia,-96.8631,49.9319,244.42,CA,MB,NA,America/Winnipeg,NA,Ruttig Street,Oakbank,R0E 1J2,000070118,000070118,PM2.5,Permanent,0118,Active,CN3,Manitoba Conservation Air Quality Section,CA,-6,NA,NA,00,007,NA,"Ruttig Street, Oakbank, MB R0E 1J2, Canada"
c40898d49e9924cf,124000070119,Winnipeg_Ellens,-97.3964,49.9489,238.41,CA,MB,NA,America/Winnipeg,NA,NA,NA,NA,000070119,000070119,PM2.5,Permanent,0119,Active,CN3,Manitoba Conservation Air Quality Section,CA,-6,NA,NA,00,007,NA,"Rosser, MB, Canada"
3cf26a12344ceaab,124000070203,Brandon,-99.9189,49.8422,380.43,CA,MB,NA,America/Winnipeg,NA,Victoria Avenue East,NA,R7A 5M6,000070203,000070203,PM2.5,Permanent,0203,Active,CN3,Manitoba Conservation Air Quality Section,CA,-6,NA,NA,00,007,NA,"Victoria Avenue East, Brandon, MB R7A 5M6, Canada"
f6c591cba5539bc5,124000070301,Flin Flon,-101.8753,54.765,0,CA,MB,NA,America/Winnipeg,NA,4th Avenue,NA,R8A 1G9,000070301,000070301,PM2.5,Permanent,0301,Active,CN3,Manitoba Conservation Air Quality Section,CA,-6,NA,NA,00,007,NA,"North of 53 Co-Op Store, 4th Avenue, Flin Flon, MB R8A 1G9, Canada"
4c9f54be9c819c22,124000070501,Thompson,-97.87,55.78,0,CA,MB,NA,America/Winnipeg,NA,NA,NA,R8N 1N4,000070501,000070501,PM2.5,Permanent,0501,Active,CN3,Manitoba Conservation Air Quality Section,CA,-6,NA,NA,00,007,NA,"Local Government District of Mystery Lake, MB R8N 1N4, Canada"
e162ebc45356475b,124000080110,Regina,-104.616009,50.452701,0,CA,SK,NA,America/Regina,NA,Albert Street,NA,S4P 2S6,000080110,000080110,PM2.5,Permanent,0110,Active,SK1,Saskatchewan Environment,CA,-6,NA,NA,00,008,NA,"Family Medicine Unit, Albert Street, Regina, SK S4P 2S6, Canada"
6e6e4aaf9774b316,124000080211,Saskatoon,-106.662796,52.136055,0,CA,SK,NA,America/Regina,480,1st Avenue North,NA,S7K 1X6,000080211,000080211,PM2.5,Permanent,0211,Active,SK1,Saskatchewan Environment,CA,-6,NA,NA,00,008,NA,"Granite Curling, 480 1st Avenue North, Saskatoon, SK S7K 1X6, Canada"
778b8fff6f62241c,124000080402,PRINCE ALBERT,-105.75203,53.201694,0,CA,SK,NA,America/Regina,NA,13 Street East,NA,S6V 4W5,000080402,000080402,PM2.5,Permanent,0402,Active,SK1,Saskatchewan Environment,CA,-6,NA,NA,00,008,NA,"13 Street East, Prince Albert, SK S6V 4W5, Canada"
01ccceb08c114f2d,124000081001,SWIFT CURRENT,-107.81689,50.285833,0,CA,SK,NA,America/Swift_Current,NA,South Service Road West,NA,S9H 3T1,000081001,000081001,PM2.5,Permanent,1001,Active,SK1,Saskatchewan Environment,CA,-6,NA,NA,00,008,NA,"South Service Road West, Swift Current, SK S9H 3T1, Canada"
e9c3161ffb2b3654,124CC0090120,Edmonton South,-113.6111,53.5028,0,CA,AB,NA,America/Edmonton,395,Wanyandi Road NW,NA,T5T 4J5,000090120,CC0090120,PM2.5,Permanent,0120,Active,AB1,Alberta Environmental Monitoring and Reporting Agency (AEMERA),CA,-7,NA,NA,00,009,NA,"395 Wanyandi Road NW, Edmonton, AB T5T 4J5, Canada"
0f903038ea9eb66e,124CC0090121,Edmonton East,-113.3681,53.5472,0,CA,AB,NA,America/Edmonton,10523,17 Street,NA,T6S 1E4,000090121,CC0090121,PM2.5,Permanent,0121,Active,AB1,Alberta Environmental Monitoring and Reporting Agency (AEMERA),CA,-7,NA,NA,00,009,NA,"10523 17 Str eet, Sherwood Park, AB T6S 1E4, Canada"
15e20c3838408925,124CC0090130,Edmonton Central,-113.4992,53.5453,0,CA,AB,NA,America/Edmonton,10345,104 Street NW,NA,T5J 1B9,000090130,CC0090130,PM2.5,Permanent,0130,Active,AB1,Alberta Environmental Monitoring and Reporting Agency (AEMERA),CA,-7,NA,NA,00,009,NA,"10345 104 Street NW, Edmonton, AB T5J 1B9, Canada"
ecdafb2086781ebb,124CC0090133,Edmonton Woodcroft,-113.562583,53.564411,670.4,CA,AB,NA,America/Edmonton,13915,115 Avenue NW,NA,T5M 3M4,000090133,CC0090133,PM2.5,Permanent,0133,Active,AB1,Alberta Environmental Monitoring and Reporting Agency (AEMERA),CA,-7,NA,NA,00,009,NA,"Woodcroft Community League, 13915 115 Avenue NW, Edmonton, AB T5M 3M4, Canada"
c6aafb7702404bf2,124CC0090218,Calgary East,-114.0253,51.0094,0,CA,AB,NA,America/Edmonton,NA,15 Street SE,NA,T2G 5B5,000090218,CC0090218,PM2.5,Permanent,0218,Active,AB1,Alberta Environmental Monitoring and Reporting Agency (AEMERA),CA,-7,NA,NA,00,009,NA,"15 Street SE, Calgary, AB T2G 5B5, Canada"
5f0bddbe7924a284,124CC0090222,Calgary Northwest,-114.1403,51.0814,0,CA,AB,NA,America/Edmonton,NA,32 Avenue NW,NA,T2L 1Y7,000090222,CC0090222,PM2.5,Permanent,0222,Active,AB1,Alberta Environmental Monitoring and Reporting Agency (AEMERA),CA,-7,NA,NA,00,009,NA,"32 Avenue NW, Calgary, AB T2L 1Y7, Canada"
ed124e1a0fe842a2,124CC0090227,Calgary Central,-114.0728,51.0467,0,CA,AB,NA,America/Edmonton,530,8 Avenue SW,NA,T2P 3S8,000090227,CC0090227,PM2.5,Permanent,0227,Active,AB1,Alberta Environmental Monitoring and Reporting Agency (AEMERA),CA,-7,NA,NA,00,009,NA,"Watermark Tower, 530 8 Avenue SW, Calgary, AB T2P 3S8, Canada"
fb6d9bb82dc0eff4,124CC0090228,Calgary Central2,-114.075165,51.047611,0,CA,AB,NA,America/Edmonton,601,5 Street SW,NA,T2P 0Y4,000090228,CC0090228,PM2.5,Permanent,0228,Active,AB1,Alberta Environmental Monitoring and Reporting Agency (AEMERA),CA,-7,NA,NA,00,009,NA,"Calgary Courts Centre, 601 5 Street SW, Calgary, AB T2P 0Y4, Canada"
2a2b7bfe50ed535b,124CC0090229,CALGARY SOUTHEAST,-113.969742,50.955122,0,CA,AB,NA,America/Edmonton,4455,110 Avenue SE,NA,T2C 2T7,000090229,CC0090229,PM2.5,Permanent,0229,Active,AB1,Alberta Environmental Monitoring and Reporting Agency (AEMERA),CA,-7,NA,NA,00,009,NA,"Calgary Humane Society, 4455 110 Avenue SE, Calgary, AB T2C 2T7, Canada"
adc0451429dab41a,124CC0090302,RED DEER RIVERSIDE DRIVE,-113.7942,52.2989,0,CA,AB,NA,America/Edmonton,NA,Riverside Drive,NA,T4N 6Z1,000090302,CC0090302,PM2.5,Permanent,0302,Active,AB1,Alberta Environmental Monitoring and Reporting Agency (AEMERA),CA,-7,NA,NA,00,009,NA,"Riverside Drive, Red Deer, AB T4N 6Z1, Canada"
9f58cab16fff3b7a,124CC0090304,RED DEER - LANCASTER,-113.765439,52.24095,0,CA,AB,NA,America/Edmonton,11,Lancaster Drive,NA,T4R 3J5,000090304,CC0090304,PM2.5,Permanent,0304,Active,AB1,Alberta Environmental Monitoring and Reporting Agency (AEMERA),CA,-7,NA,NA,00,009,NA,"11 Lancaster Drive, Red Deer, AB T4R 3J5, Canada"
8246844713d29bd1,124CC0090402,Medicine Hat - Crescent Hts,-110.6814,50.0492,0,CA,AB,NA,America/Edmonton,NA,Jefferies Trail,NA,T1A 5R6,000090402,CC0090402,PM2.5,Permanent,0402,Active,AB1,Alberta Environmental Monitoring and Reporting Agency (AEMERA),CA,-7,NA,NA,00,009,NA,"Jefferies Trail, Medicine Hat, AB T1A 5R6, Canada"
b3e51f597414054e,124CC0090502,Lethbridge,-112.8006,49.7164,0,CA,AB,NA,America/Edmonton,NA,Coal Banks Trail,NA,T1H 4G2,000090502,CC0090502,PM2.5,Permanent,0502,Active,AB1,Alberta Environmental Monitoring and Reporting Agency (AEMERA),CA,-7,NA,NA,00,009,NA,"Coal Banks Trail, Lethbridge, AB T1H 4G2, Canada"
e3640bc392e2627d,124CC0090601,Fort Saskatchewan,-113.2233,53.6989,0,CA,AB,NA,America/Edmonton,9601,93 Street,NA,T8L 4K8,000090601,CC0090601,PM2.5,Permanent,0601,Active,AB1,Alberta Environmental Monitoring and Reporting Agency (AEMERA),CA,-7,NA,NA,00,009,NA,"9601 93 Str eet, Fort Saskatchewan, AB T8L 4K8, Canada"
446848a69e930b73,124CC0090606,Bruderheim,-112.927795,53.800117,0,CA,AB,NA,America/Edmonton,NA,49 Avenue,Bruderheim,T0B 0S0,000090606,CC0090606,PM2.5,Permanent,0606,Active,AB1,Alberta Environmental Monitoring and Reporting Agency (AEMERA),CA,-7,NA,NA,00,009,NA,"Bruderheim Pharmacy, 49 Avenue, Bruderheim, AB T0B 0S0, Canada"
b7aeb59ac1f0a49e,124CC0090701,Athabasca Valley,-111.39,56.7328,0,CA,AB,NA,America/Edmonton,NA,MacDonald Drive,NA,T9H 4A4,000090701,CC0090701,PM2.5,Permanent,0701,Active,AB1,Alberta Environmental Monitoring and Reporting Agency (AEMERA),CA,-7,NA,NA,00,009,NA,"MacDonald Drive, Fort McMurray, AB T9H 4A4, Canada"
523f404fa44e7e3f,124CC0090702,Patricia McInnes,-111.4761,56.7522,0,CA,AB,NA,America/Edmonton,NA,Carteret Drive,NA,T9K 1Y8,000090702,CC0090702,PM2.5,Permanent,0702,Active,AB1,Alberta Environmental Monitoring and Reporting Agency (AEMERA),CA,-7,NA,NA,00,009,NA,"Carteret Drive, Fort McMurray, AB T9K 1Y8, Canada"
773ddc9c7a866694,124CC0090801,Fort McKay,-111.6406,57.1889,0,CA,AB,NA,America/Edmonton,NA,Fort MacKay Road,NA,T0P 1C0,000090801,CC0090801,PM2.5,Permanent,0801,Active,AB1,Alberta Environmental Monitoring and Reporting Agency (AEMERA),CA,-7,NA,NA,00,009,NA,"Fort MacKay Road, Fort McKay, AB T0P 1C0, Canada"
482c6a8aa74bb049,124CC0090806,Syncrude UE1,-111.642,57.149,0,CA,AB,NA,America/Edmonton,NA,unnamed road,NA,T0P 1C0,000090806,CC0090806,PM2.5,Permanent,0806,Active,AB1,Alberta Environmental Monitoring and Reporting Agency (AEMERA),CA,-7,NA,NA,00,009,NA,"unnamed road, Wood Buffalo, AB T0P 1C0, Canada"
072f7c834021330b,124CC0091101,Elk Island,-112.8686,53.6825,0,CA,AB,NA,America/Edmonton,NA,unnamed road,NA,NA,000091101,CC0091101,PM2.5,Permanent,1101,Active,AB1,Alberta Environmental Monitoring and Reporting Agency (AEMERA),CA,-7,NA,NA,00,009,NA,"unnamed road, Improvement District No. 13, AB, Canada"
4e732912c1b628cc,124CC0091301,Tomahawk,-115.1906,53.37,0,CA,AB,NA,America/Edmonton,NA,unnamed road,NA,NA,000091301,CC0091301,PM2.5,Permanent,1301,Active,AB1,Alberta Environmental Monitoring and Reporting Agency (AEMERA),CA,-7,NA,NA,00,009,NA,"unnamed road, Brazeau County, AB, Canada"
c42b53e17bc37c95,124CC0091501,Beaverlodge,-119.3967,55.1964,0,CA,AB,NA,America/Edmonton,NA,Township Road 720,NA,T0H 0C0,000091501,CC0091501,PM2.5,Permanent,1501,Active,AB1,Alberta Environmental Monitoring and Reporting Agency (AEMERA),CA,-7,NA,NA,00,009,NA,"Township Road 720, County of Grande Prairie, AB T0H 0C0, Canada"
850ad9bd017a0aff,124CC0091701,Steeper,-117.09111,53.1325,0,CA,AB,NA,America/Edmonton,NA,unnamed road,NA,NA,000091701,CC0091701,PM2.5,Permanent,1701,Active,AB1,Alberta Environmental Monitoring and Reporting Agency (AEMERA),CA,-7,NA,NA,00,009,NA,"unnamed road, Yellowhead County, AB, Canada"
8f193ed6853d8cbf,124CC0091801,Fort Chipewyan,-111.1764,58.7083,0,CA,AB,NA,America/Edmonton,NA,Fraser Street,Fort Chipewyan,T0P 1B0,000091801,CC0091801,PM2.5,Permanent,1801,Active,AB1,Alberta Environmental Monitoring and Reporting Agency (AEMERA),CA,-7,NA,NA,00,009,NA,"Fraser Street, Fort Chipewyan, AB T0P 1B0, Canada"
e1c468e818f87b14,124CC0091901,Caroline,-114.7,51.95,0,CA,AB,NA,America/Edmonton,NA,unnamed road,NA,NA,000091901,CC0091901,PM2.5,Permanent,1901,Active,AB1,Alberta Environmental Monitoring and Reporting Agency (AEMERA),CA,-7,NA,NA,00,009,NA,"unnamed road, Clearwater County, AB, Canada"
76c477183ef887b8,124CC0092001,Grande Prairie - Henry Pirker,-118.8064,55.1767,0,CA,AB,NA,America/Edmonton,10317,107 Avenue,NA,T8V 1M4,000092001,CC0092001,PM2.5,Permanent,2001,Active,AB1,Alberta Environmental Monitoring and Reporting Agency (AEMERA),CA,-7,NA,NA,00,009,NA,"10317 107 Avenue, Grande Prairie, AB T8V 1M4, Canada"
ccf4f94e0a993310,124CC0092201,Lamont,-112.8803,53.7603,0,CA,AB,NA,America/Edmonton,NA,Range Road 202,NA,NA,000092201,CC0092201,PM2.5,Permanent,2201,Active,AB1,Alberta Environmental Monitoring and Reporting Agency (AEMERA),CA,-7,NA,NA,00,009,NA,"Range Road 202, Lamont County, AB, Canada"
9187e82665468846,124CC0092301,Redwater,-113.0992,53.8436,0,CA,AB,NA,America/Edmonton,NA,643,NA,NA,000092301,CC0092301,PM2.5,Permanent,2301,Active,AB1,Alberta Environmental Monitoring and Reporting Agency (AEMERA),CA,-7,NA,NA,00,009,NA,"643, Sturgeon County, AB, Canada"
7bf00e6dafb7f9dc,124CC0092901,Edson,-116.3928,53.5936,0,CA,AB,NA,America/Edmonton,NA,31 Street,NA,T7E 1X8,000092901,CC0092901,PM2.5,Permanent,2901,Active,AB1,Alberta Environmental Monitoring and Reporting Agency (AEMERA),CA,-7,NA,NA,00,009,NA,"31 Street, Edson, AB T7E 1X8, Canada"
676064be4b98a78b,124CC0093101,Genesee,-114.2211,53.3017,0,CA,AB,NA,America/Edmonton,NA,Range Road 23,NA,NA,000093101,CC0093101,PM2.5,Permanent,3101,Active,AB1,Alberta Environmental Monitoring and Reporting Agency (AEMERA),CA,-7,NA,NA,00,009,NA,"Range Road 23, Leduc County, AB, Canada"
30d13ca6f576ff3f,124CC0093202,Hinton,-117.3153,53.2536,0,CA,AB,NA,America/Edmonton,NA,unnamed road,NA,NA,000093202,CC0093202,PM2.5,Permanent,3202,Active,AB1,Alberta Environmental Monitoring and Reporting Agency (AEMERA),CA,-7,NA,NA,00,009,NA,"unnamed road, Yellowhead County, AB, Canada"
a0741b089972a2da,124CC0093901,Powers,-114.4197,53.6331,0,CA,AB,NA,America/Edmonton,54030,Range Road 35,NA,NA,000093901,CC0093901,PM2.5,Permanent,3901,Active,AB1,Alberta Environmental Monitoring and Reporting Agency (AEMERA),CA,-7,NA,NA,00,009,NA,"54030 Range Road 35, Lac Ste. Anne County, AB, Canada"
74783167b0d9c7cb,124CC0094301,Cold Lake South,-110.2331,54.4138,0,CA,AB,NA,America/Edmonton,NA,62 Street,NA,T9M 1R3,000094301,CC0094301,PM2.5,Permanent,4301,Active,AB1,Alberta Environmental Monitoring and Reporting Agency (AEMERA),CA,-7,NA,NA,00,009,NA,"SPCA Cold Lake, 62 Street, City of Cold Lake, AB T9M 1R3, Canada"
2456df84d845175d,124CC0094401,St. Lina,-111.50264,54.216473,0,CA,AB,NA,America/Edmonton,NA,Range Road 110,NA,NA,000094401,CC0094401,PM2.5,Permanent,4401,Active,AB1,Alberta Environmental Monitoring and Reporting Agency (AEMERA),CA,-7,NA,NA,00,009,NA,"Range Road 110, County of St. Paul, AB, Canada"
03f2f86e4cf3c27e,124000100110,Kensington Park,-122.9711,49.2794,133,CA,BC,NA,America/Vancouver,NA,Hammarskjold Drive,NA,V5B 1S0,000100110,000100110,PM2.5,Permanent,0110,Active,BC2,Metro Vancouver,CA,-8,NA,NA,00,010,NA,"Kensington Park Outdoor Pool, Hammarskjold Drive, Burnaby, BC V5B 1S0, Canada"
4325d6c9c1e98683,124000100111,Rocky Point Park,-122.84917,49.28083,4.9,CA,BC,NA,America/Vancouver,NA,Rocky Point Pier,NA,V3H 1X3,000100111,000100111,PM2.5,Permanent,0111,Active,BC2,Metro Vancouver,CA,-8,NA,NA,00,010,NA,"Rocky Point Pier, Port Moody, BC V3H 1X3, Canada"
23330cdc38d43cca,124000100119,Burnaby South,-122.98556,49.21528,144.9,CA,BC,NA,America/Vancouver,5455,Rumble Street,NA,V5J 4K0,000100119,000100119,PM2.5,Permanent,0119,Active,BC2,Metro Vancouver,CA,-8,NA,NA,00,010,NA,"Burnaby South Secondary School, 5455 Rumble Street, Burnaby, BC V5J 4K0, Canada"
3a7250dff92c24db,124000100121,Second Narrows,-123.02,49.3,6.07,CA,BC,NA,America/Vancouver,NA,Riverside Drive,NA,V7H 0A4,124000100121,124000100121,PM2.5,Permanent,0121,Active,BC2,Metro Vancouver,CA,-8,NA,NA,NA,NA,NA,"Riverside Drive, District of North Vancouver, BC V7H 0A4, Canada"
9ebd22688392952a,124000100125,North Delta,-122.90167,49.15833,0,CA,BC,NA,America/Vancouver,8514,116 Street,NA,V4C 0C8,000100125,000100125,PM2.5,Permanent,0125,Active,BC2,Metro Vancouver,CA,-8,NA,NA,00,010,NA,"8514 116 Street, Delta, BC V4C 0C8, Canada"
6da8c01e15703a4a,124000100127,Surrey East,-122.69417,49.13278,0,CA,BC,NA,America/Vancouver,19080,72 Avenue,NA,V4N 5M8,000100127,000100127,PM2.5,Permanent,0127,Active,BC2,Metro Vancouver,CA,-8,NA,NA,00,010,NA,"19080 72 Ave nue, Surrey, BC V4N 5M8, Canada"
89c66b3f8a2ccb04,124000100128,Richmond South,-123.10833,49.14139,5.96,CA,BC,NA,America/Vancouver,NA,Aragon Road,NA,V7A 3T9,000100128,000100128,PM2.5,Permanent,0128,Active,BC2,Metro Vancouver,CA,-8,NA,NA,00,010,NA,"Aragon Road, Richmond, BC V7A 3T9, Canada"
b6683f8a97825e65,124000100132,Mahon Park,-123.083611,49.323891,73.1,CA,BC,NA,America/Vancouver,NA,West 16th Street,NA,NA,000100132,000100132,PM2.5,Permanent,0132,Active,BC2,Metro Vancouver,CA,-8,NA,NA,00,010,NA,"Mahon Running Track, West 16th Street, North Vancouver, BC, Canada"
3667b29b93189a43,124000100134,Vancouver Airport,-123.15222,49.18639,0.9,CA,BC,NA,America/Vancouver,NA,Templeton Yard Access Lane,NA,V7B 0B6,000100134,000100134,PM2.5,Permanent,0134,Active,BC2,Metro Vancouver,CA,-8,NA,NA,00,010,NA,"Ground Materials Shed, Templeton Yard Access Lane, Richmond, BC V7B 0B6, Canada"
8e0999f09451cfab,124000100138,Horseshoe Bay,-123.277,49.368,63.9,CA,BC,NA,America/Vancouver,NA,Eagleridge Drive,NA,V7W 2G6,124000100138,124000100138,PM2.5,Permanent,0138,Active,BC2,Metro Vancouver,CA,-8,NA,NA,NA,NA,NA,"Gleneagles Golf Course, Eagleridge Drive, West Vancouver, BC V7W 2G6, Canada"
1ade60d710f2c0eb,124000100140,Tsawwassen,-123.082017,49.009869,52.2,CA,BC,NA,America/Vancouver,NA,Milsom Wynd,NA,V4M 2M8,000100140,000100140,PM2.5,Permanent,0140,Active,BC2,Metro Vancouver,CA,-8,NA,NA,00,010,NA,"Milsom Wynd (EB) at Galway Dr, Milsom Wynd, Delta, BC V4M 2M8, Canada"
b09b1c27910a2ebb,124000100202,PRG Plaza 400,-122.74194,53.91472,601.5,CA,BC,NA,America/Vancouver,NA,4th Avenue,NA,V2L 1R6,000100202,000100202,PM2.5,Permanent,0202,Active,BC1,British Columbia Ministry of Environment,CA,-8,NA,NA,00,010,NA,"Plaza 400, 4th Avenue, Prince George, BC V2L 1R6, Canada"
bd3a96094aeefd17,124000100304,Victoria Topaz,-123.363165,48.441942,31.1,CA,BC,NA,America/Vancouver,NA,Topaz Avenue,NA,V8T 4K2,000100304,000100304,PM2.5,Permanent,0304,Active,BC1,British Columbia Ministry of Environment,CA,-8,NA,NA,00,010,NA,"S.J. Willis Alternative School, Topaz Avenue, Victoria, BC V8T 4K2, Canada"
f96c74b50561e7ce,124000100308,Colwood City Hall,-123.49278,48.42389,0,CA,BC,NA,America/Vancouver,3274,Wishart Road,NA,V9C 2A4,000100308,000100308,PM2.5,Permanent,0308,Active,BC1,British Columbia Ministry of Environment,CA,-8,NA,NA,00,010,NA,"3274 Wishart Road, Colwood, BC V9C 2A4, Canada"
c658853f595c4ccc,124000100401,Kamloops Federal Building,-120.334016,50.67477,0,CA,BC,NA,America/Vancouver,NA,Seymour Street,NA,V2C 3M3,000100401,000100401,PM2.5,Permanent,0401,Active,BC1,British Columbia Ministry of Environment,CA,-8,NA,NA,00,010,NA,"Government of Can ada, Seymour Street, Kamloops, BC V2C 3M3, Canada"
334d37dcb03a9e45,124000100703,Kelowna KLO Road,-119.467461,49.862119,0,CA,BC,NA,America/Vancouver,1450,K.L.O. Road,NA,V1W 2E1,124000100703,124000100703,PM2.5,Permanent,0703,Active,BC1,British Columbia Ministry of Environment,CA,-8,NA,NA,NA,NA,NA,"Regional District of Central Okanagan, 1450 K.L.O. Road, Kelowna, BC V1W 2E1, Canada"
6b7edc1475b2cf3d,124000101003,Abbotsford,-122.30972,49.04278,79.9,CA,BC,NA,America/Vancouver,NA,Bevan Avenue,NA,V2S 1T4,000101003,000101003,PM2.5,Permanent,1003,Active,BC2,Metro Vancouver,CA,-8,NA,NA,00,010,NA,"Bevan Avenue, Abbotsford, BC V2S 1T4, Canada"
961a664a95c9f57e,124000101005,Abbotsford Airport,-122.326556,49.021506,64.4,CA,BC,NA,America/Vancouver,NA,Columbia Road,NA,V2T 5Y9,000101005,000101005,PM2.5,Permanent,1005,Active,BC2,Metro Vancouver,CA,-8,NA,NA,00,010,NA,"Columbia Road, Abbotsford, BC V2T 5Y9, Canada"
34899fd2c844befa,124000101101,Chilliwack,-121.94056,49.15611,15.3,CA,BC,NA,America/Vancouver,NA,Airport Road,NA,V2P 4N9,000101101,000101101,PM2.5,Permanent,1101,Active,BC2,Metro Vancouver,CA,-8,NA,NA,00,010,NA,"Airport at Cessna (EB), Airport Road, Chilliwack, BC V2P 4N9, Canada"
711f4758751804bf,124000101202,Pitt Meadows,-122.70889,49.24528,0,CA,BC,NA,America/Vancouver,NA,Old Dewdney Trunk Road,Pitt Meadows,V3Y 2B0,000101202,000101202,PM2.5,Permanent,1202,Active,BC2,Metro Vancouver,CA,-8,NA,NA,00,010,NA,"Old Dewdney Trunk Road, Pitt Meadows, BC V3Y 2B0, Canada"
fe6d1145f37b00c3,124000101301,Langley,-122.56694,49.09556,82,CA,BC,NA,America/Vancouver,NA,52 Avenue,Township of Langley,V2Z 2P7,000101301,000101301,PM2.5,Permanent,1301,Active,BC2,Metro Vancouver,CA,-8,NA,NA,00,010,NA,"DW Poppy Secondary School, 52 Avenue, Township of Langley, BC V2Z 2P7, Canada"
6df59c6184472aa1,124000101401,Hope,-121.49944,49.36972,40,CA,BC,NA,America/Vancouver,NA,Airport Road,Hope,V0X 1L2,000101401,000101401,PM2.5,Permanent,1401,Active,BC2,Metro Vancouver,CA,-8,NA,NA,00,010,NA,"Airport Road, Hope, BC V0X 1L2, Canada"
8f405b1eac41f2e4,124000101603,SQUAMISH ELEMENTARY,-123.15133,49.70516,7.15,CA,BC,NA,America/Vancouver,NA,Buckley Avenue,NA,V8B 0S8,000101603,000101603,PM2.5,Permanent,1603,Active,BC1,British Columbia Ministry of Environment,CA,-8,NA,NA,00,010,NA,"Buckley 38340 block, Buckley Avenue, Squamish, BC V8B 0S8, Canada"
a4aeeb44ae5b9b20,124000101706,Quesnel Johnston Avenue,-122.4934,52.96936,505.1,CA,BC,NA,America/Vancouver,NA,Johnston Avenue,NA,V2J 2S8,124000101706,124000101706,PM2.5,Permanent,1706,Active,BC1,British Columbia Ministry of Environment,CA,-8,NA,NA,NA,NA,NA,"FLNR Government Office, Johnston Avenue, Quesnel, BC V2J 2S8, Canada"
8fd498b0da2e219f,124000101904,Cranbrook Muriel Baxter,-115.753682,49.507103,0,CA,BC,NA,America/Edmonton,NA,20th Avenue South,NA,V1C 2P1,124000101904,124000101904,PM2.5,Permanent,1904,Active,BC1,British Columbia Ministry of Environment,CA,-8,NA,NA,NA,NA,NA,"20th Avenue South, Cranbrook, BC V1C 2P1, Canada"
a03d2c830ed4073d,124000102102,Nanaimo Labieux Road,-123.99389,49.20083,122,CA,BC,NA,America/Vancouver,NA,Labieux Road,NA,V9T 5V4,000102102,000102102,PM2.5,Permanent,2102,Active,BC1,British Columbia Ministry of Environment,CA,-8,NA,NA,00,010,NA,"Labieux Road, Nanaimo, BC V9T 5V4, Canada"
a8042edacad18a58,124000102103,Harmac Cedar Woodbank,-123.850165,49.114165,47,CA,BC,NA,America/Vancouver,NA,Woobank Road,NA,V9X 1J4,000102103,000102103,PM2.5,Permanent,2103,Active,BC1,British Columbia Ministry of Environment,CA,-8,NA,NA,00,010,NA,"Woobank Road, Area A (Cassidy/Cedar), BC V9X 1J4, Canada"
7bf409320397789d,124000102303,Powell River James T,-124.5624,49.889299,140,CA,BC,NA,America/Vancouver,NA,Sutherland Avenue,NA,V8A 4T1,000102303,000102303,PM2.5,Permanent,2303,Active,BC1,British Columbia Ministry of Environment,CA,-8,NA,NA,00,010,NA,"Sutherland at Lund (NB), Sutherland Avenue, Powell River, BC V8A 4T1, Canada"
2342d5bac0f129e7,124000102402,Smithers Muheim Memorial,-127.168542,54.778486,0,CA,BC,NA,America/Vancouver,3659,3rd Avenue,NA,NA,124000102402,124000102402,PM2.5,Permanent,2402,Active,BC1,British Columbia Ministry of Environment,CA,-8,NA,NA,NA,NA,NA,"Muheim Elementary School, 3659 3rd Avenue, Smithers, BC, Canada"
7346f7d239d40402,124000102503,TERRACE SKEENA MIDDLE SCHOOL,-128.6075,54.52167,0,CA,BC,NA,America/Vancouver,3411,Munroe Street,NA,V8G 3C1,000102503,000102503,PM2.5,Permanent,2503,Active,BC1,British Columbia Ministry of Environment,CA,-8,NA,NA,00,010,NA,"Skeena Middle School, 3411 Munroe Street, Terrace, BC V8G 3C1, Canada"
b906b8eb90dfdbe7,124000102602,Port Alberni Elementary,-124.806628,49.261014,0,CA,BC,NA,America/Vancouver,NA,Arrowsmith Road,NA,V9Y 6Z2,000102602,000102602,PM2.5,Permanent,2602,Active,BC1,British Columbia Ministry of Environment,CA,-8,NA,NA,00,010,NA,"Arrowsmith Road, Port Alberni, BC V9Y 6Z2, Canada"
3c151d8ade26c9d5,124000102701,Williams Lake Columneetza School,-122.150391,52.14428,660.3,CA,BC,NA,America/Vancouver,NA,Moon Avenue,NA,V2G 2J8,000102701,000102701,PM2.5,Permanent,2701,Active,BC1,British Columbia Ministry of Environment,CA,-8,NA,NA,00,010,NA,"Lake City Secondary - Columneetza Campus, Moon Avenue, Williams Lake, BC V2G 2J8, Canada"
f3a0c5aa956e0935,124000102801,Elk Falls Dogwood,-125.2484,50.018425,60.1,CA,BC,NA,America/Vancouver,NA,Westmere Road,NA,V9W 4A3,000102801,000102801,PM2.5,Permanent,2801,Active,BC1,British Columbia Ministry of Environment,CA,-8,NA,NA,00,010,NA,"Westmere Road, Campbell River, BC V9W 4A3, Canada"
7fe3a33647dcf63e,124000103011,Elkford Rocky Mountain Elementary School,-114.93342,50.007794,1333.8,CA,BC,NA,America/Edmonton,NA,Balmer Drive,Elkford,V0B 1H0,124000103011,124000103011,PM2.5,Permanent,3011,Active,BC1,British Columbia Ministry of Environment,CA,-8,NA,NA,NA,NA,NA,"Elkford Elementary School, Balmer Drive, Elkford, BC V0B 1H0, Canada"
8a39ea18fd8556e3,124000103021,Sparwood Centennial Square,-114.88766,49.732786,1138.6,CA,BC,NA,America/Edmonton,NA,Centennial Square,Sparwood,V0B 2G0,124000103021,124000103021,PM2.5,Permanent,3021,Active,BC1,British Columbia Ministry of Environment,CA,-8,NA,NA,NA,NA,NA,"Centennial Square, Sparwood, BC V0B 2G0, Canada"
2bfb33599a12be24,124000103202,Golden Helipad,-116.966,51.2975,773.5,CA,BC,NA,America/Edmonton,NA,9th Avenue South,Golden,V0A 1H0,000103202,000103202,PM2.5,Permanent,3202,Active,BC1,British Columbia Ministry of Environment,CA,-8,NA,NA,00,010,NA,"Golden Hospital, 9th Avenue South, Golden, BC V0A 1H0, Canada"
42bb6e5be25551e3,124000103502,Castlegar Zinio Park,-117.661527,49.317698,0,CA,BC,NA,America/Vancouver,NA,9th Avenue,NA,V1N 1H4,000103502,000103502,PM2.5,Permanent,3502,Active,BC1,British Columbia Ministry of Environment,CA,-8,NA,NA,00,010,NA,"9th Avenue, Castlegar, BC V1N 1H4, Canada"
fdb707cb5ea7f3b3,124000103601,Agassiz,-121.762264,49.238008,22.9,CA,BC,NA,America/Vancouver,7170,Rosedale - Agassiz Bypass Highway,Agassiz,V0M 1A2,000103601,000103601,PM2.5,Permanent,3601,Active,BC2,Metro Vancouver,CA,-8,NA,NA,00,010,NA,"District of Kent Municipal Hall, 7170 Rosedale - Agassiz Bypass Highway, Kent, BC V0M 1A2, Canada"
8bcfb494762c2c47,124000103901,Kitimat Riverlodge,-128.671436,54.05389,0,CA,BC,NA,America/Vancouver,NA,C Road,NA,V8C 1W1,000103901,000103901,PM2.5,Permanent,3901,Active,BC1,British Columbia Ministry of Environment,CA,-8,NA,NA,00,010,NA,"C Road, Kitimat, BC V8C 1W1, Canada"
b810139ed9337c1e,124000103902,Kitimat Haul Road,-128.70269,54.029194,2.1,CA,BC,NA,America/Vancouver,NA,JFJV and LNGC Entrance,NA,V8C 2C7,000103902,000103902,PM2.5,Permanent,3902,Active,BC1,British Columbia Ministry of Environment,CA,-8,NA,NA,00,010,NA,"JFJV and LNGC Entrance, Kitimat, BC V8C 2C7, Canada"
ff2f613e5f73b538,124000103904,KITIMAT WHITESAIL,-128.639131,54.066909,0,CA,BC,NA,America/Vancouver,NA,Clifford Street,NA,V8C 1C5,000103904,000103904,PM2.5,Permanent,3904,Active,BC1,British Columbia Ministry of Environment,CA,-8,NA,NA,00,010,NA,"Clifford Street, Kitimat, BC V8C 1C5, Canada"
91f6d9f2762cc82b,124000103905,Kitimat Haisla Village,-128.650768,53.973228,0,CA,BC,NA,America/Vancouver,NA,Haisla Avenue,NA,V0T 2B0,000103905,000103905,PM2.5,Permanent,3905,Active,BC1,British Columbia Ministry of Environment,CA,-8,NA,NA,00,010,NA,"Haisla Avenue, Area C (Butedale/Kitlope/Kitsumkalum), BC V0T 2B0, Canada"
5f1d22e59080cbfb,124000104003,Vernon Science Centre,-119.270723,50.260617,500.2,CA,BC,NA,America/Vancouver,NA,25 Avenue,NA,V1T 6X2,000104003,000104003,PM2.5,Permanent,4003,Active,BC1,British Columbia Ministry of Environment,CA,-8,NA,NA,00,010,NA,"Vernon Arts Center, 25 Avenue, Vernon, BC V1T 6X2, Canada"
bebe53176ad97c95,124000104101,Grand Forks City Hall,-118.439088,49.031168,520.3,CA,BC,NA,America/Vancouver,7217,4th Street,Grand Forks,V0H 3H0,000104101,000104101,PM2.5,Permanent,4101,Active,BC1,British Columbia Ministry of Environment,CA,-8,NA,NA,00,010,NA,"Grand Forks City Hall, 7217 4th Street, Grand Forks, BC V0H 3H0, Canada"
4ec23215ccceb107,124000104801,Duncan Deykin Avenue,-123.646402,48.80255,20.1,CA,BC,NA,America/Vancouver,NA,Deykin Avenue,North Cowichan,V9L 5P6,000104801,000104801,PM2.5,Permanent,4801,Active,BC1,British Columbia Ministry of Environment,CA,-8,NA,NA,00,010,NA,"Deykin Avenue, North Cowichan, BC V9L 5P6, Canada"
16260edf1bf98c41,124000104804,Duncan College Street,-123.717307,48.786114,0,CA,BC,NA,America/Vancouver,NA,College Street,Duncan,V9L 1C3,000104804,000104804,PM2.5,Permanent,4804,Active,BC1,British Columbia Ministry of Environment,CA,-8,NA,NA,00,010,NA,"The Fisherman's Pole, College Street, Duncan, BC V9L 1C3, Canada"
a09c5c71a707c2a8,124000105001,Whistler Meadow Park,-122.960402,50.144285000000004,641.4,CA,BC,NA,America/Vancouver,8625,Sea-to-Sky Highway,Whistler Resort Municipality,V0N 1B8,000105001,000105001,PM2.5,Permanent,5001,Active,BC1,British Columbia Ministry of Environment,CA,-8,NA,NA,00,010,NA,"Meadow Park Sports Centre, 8625 Sea-to-Sky Highway, Whistler Resort Municipality, BC V0N 1B8, Canada"
206a116007d4e966,124000105101,Houston Firehall,-126.645,54.3972,594.4,CA,BC,NA,America/Vancouver,NA,13th Street,NA,NA,000105101,000105101,PM2.5,Permanent,5101,Active,BC1,British Columbia Ministry of Environment,CA,-8,NA,NA,00,010,NA,"Silverthorne Elementary School, 13th Street, Houston, BC, Canada"
b4d89f3756e28e0c,124000105201,Burns Lake Fire Centre,-125.7643,54.2307,652.4,CA,BC,NA,America/Vancouver,NA,4th Avenue,NA,V0J 1E1,000105201,000105201,PM2.5,Permanent,5201,Active,BC1,British Columbia Ministry of Environment,CA,-8,NA,NA,00,010,NA,"4th Avenue, Burns Lake, BC V0J 1E1, Canada"
e637e52900ac59f1,124000105301,Langdale Elementary,-123.479185,49.438848,70.2,CA,BC,NA,America/Vancouver,NA,Johnson Road,NA,V0N 1V9,000105301,000105301,PM2.5,Permanent,5301,Active,BC1,British Columbia Ministry of Environment,CA,-8,NA,NA,00,010,NA,"Johnson at Forbes (NB), Johnson Road, Area F (West Howe Sound), BC V0N 1V9, Canada"
5b963f7334dfa33d,124000105504,FORT ST JOHN LEARNING CENTRE,-120.856111,56.244722,0,CA,BC,NA,America/Dawson_Creek,NA,99 Avenue,NA,V1J 4E6,000105504,000105504,PM2.5,Permanent,5504,Active,BC1,British Columbia Ministry of Environment,CA,-8,NA,NA,00,010,NA,"Fort St John Key Learning Centre Station, 99 Avenue, Fort St. John, BC V1J 4E6, Canada"
0875d34fe8f88d5d,124000105604,Penticton Industrial Place,-119.59578,49.47753,308.1,CA,BC,NA,America/Vancouver,NA,Ellis Creek walkway,NA,V2A 6A6,000105604,000105604,PM2.5,Permanent,5604,Active,BC1,British Columbia Ministry of Environment,CA,-8,NA,NA,00,010,NA,"Ellis Creek walkway, Penticton, BC V2A 6A6, Canada"
c132947ec6eb0766,124000106101,Valemount,-119.269821,52.832459,0,CA,BC,NA,America/Vancouver,NA,5th Avenue,NA,NA,124000106101,124000106101,PM2.5,Permanent,6101,Active,BC1,British Columbia Ministry of Environment,CA,-8,NA,NA,NA,NA,NA,"Valemount Fire rescue, 5th Avenue, Valemount, BC, Canada"
24827fbcd36f5ffc,124000106701,Crofton Substation,-123.653929,48.874529,40,CA,BC,NA,America/Vancouver,NA,Crofton Road,North Cowichan,V0R 1R0,000106701,000106701,PM2.5,Permanent,6701,Active,BC1,British Columbia Ministry of Environment,CA,-8,NA,NA,00,010,NA,"Crofton at Hay (EB), Crofton Road, North Cowichan, BC V0R 1R0, Canada"
9fa4698ad2aa3e81,124000106900,Vanderhoof Courthouse,-124.0061,54.0163,0,CA,BC,NA,America/Vancouver,NA,East Columbia Street,NA,V0J 3A1,000106900,000106900,PM2.5,Permanent,6900,Active,BC1,British Columbia Ministry of Environment,CA,-8,NA,NA,00,010,NA,"Vanderhoof Courthouse, East Columbia Street, Vanderhoof, BC V0J 3A1, Canada"
bce8b1345544008a,124000107100,Courtenay Elementary School,-124.996222,49.682603,0,CA,BC,NA,America/Vancouver,1540,McPhee Avenue,NA,V9N 3A5,000107100,000107100,PM2.5,Permanent,7100,Active,BC1,British Columbia Ministry of Environment,CA,-8,NA,NA,00,010,NA,"Courtenay Elementary, 1540 McPhee Avenue, Courtenay, BC V9N 3A5, Canada"
7ae8b7992963d850,001010550010,GADSDEN,-85.992653,33.991341,182.7,US,AL,Etowah,America/Chicago,NA,George Wallace Drive,Gadsden,35903,010550010,010550010,PM2.5,Permanent,0010,Active,AL1,Alabama Department of Environmental Management,R4,-6,23460," Gadsden, AL ",01,055,NA,"Gadsden State Community College (Wallace Drive Campus), George Wallace Drive, Gadsden, AL 35903, United States of America"
482118717fd1bbe0,840010730023,NO. BHAM,-86.815,33.5531,172.96,US,AL,Jefferson,America/Chicago,3006,28th Alley North,NA,35207,010730023,010730023,PM2.5,Permanent,0023,Active,AL2,Jefferson County Department of Health,R4,-6,13820," Birmingham-Hoover, AL ",01,073,NA,"3006 28th Alley North, Birmingham, AL 35207, United States of America"
2e6f5753b410a953,840010731005,MCADORY,-87.0036,33.3311,154.24,US,AL,Jefferson,America/Chicago,6052,Townley Way,NA,35111,010731005,010731005,PM2.5,Permanent,1005,Active,AL2,Jefferson County Department of Health,R4,-6,13820," Birmingham-Hoover, AL ",01,073,NA,"6052 Townley Way, Jefferson County, AL 35111, United States of America"
0340e98996e33659,840010731010,LEEDS,-86.5492,33.5453,190.54,US,AL,Jefferson,America/Chicago,950,Ashville Road,NA,35094,010731010,010731010,PM2.5,Permanent,1010,Active,AL2,Jefferson County Department of Health,R4,-6,13820," Birmingham-Hoover, AL ",01,073,NA,"Leeds Elementary School, 950 Ashville Road, Maplewood, Leeds, AL 35094, United States of America"
efabc825056675f8,840010732003,WYLAM,-86.9242,33.4997,182.35,US,AL,Jefferson,America/Chicago,4640,13th Avenue,NA,35224,010732003,010732003,PM2.5,Permanent,2003,Active,AL2,Jefferson County Department of Health,R4,-6,13820," Birmingham-Hoover, AL ",01,073,NA,"4640 13th Avenue, Falls Junction, Birmingham, AL 35224, United States of America"
a19a971aaf44f056,840010735003,CORNER,-86.9425,33.8017,228.56,US,AL,Jefferson,America/Chicago,10004,Corner School Road,NA,35180,010735003,010735003,PM2.5,Permanent,5003,Active,AL2,Jefferson County Department of Health,R4,-6,13820," Birmingham-Hoover, AL ",01,073,NA,"10004 Corner School Road, Partridge Crossroads, Jefferson County, AL 35180, United States of America"
fcf469ff964a61f8,840010736004,Shuttlesworth,-86.796389,33.565278,176.08,US,AL,Jefferson,America/Chicago,4220,F L Shuttlesworth Drive,NA,35207,010736004,010736004,PM2.5,Permanent,6004,Active,AL2,Jefferson County Department of Health,R4,-6,13820," Birmingham-Hoover, AL ",01,073,NA,"4220 F L Shuttlesworth Drive, Harriman Park, Birmingham, AL 35207, United States of America"
d9adb31478abf2fa,840010890014,Huntsville Old Airport,-86.591698,34.6917,178.15,US,AL,Madison,America/Chicago,3229,Leeman Ferry Road Southwest,NA,35801,010890014,010890014,PM2.5,Permanent,0014,Active,AL4,Huntsville Natural Resources and Environmental Management,R4,-6,26620," Huntsville, AL ",01,089,NA,"3229 Leeman Ferry Road Southwest, Huntsville, AL 35801, United States of America"
7a93fd1b322abacd,001010970003,CHICK.,-88.0875,30.7697,9.34,US,AL,Mobile,America/Chicago,743,Iroquois Street,NA,36611,010970003,010970003,PM2.5,Permanent,0003,Active,AL1,Alabama Department of Environmental Management,R4,-6,33660," Mobile, AL ",01,097,NA,"743 Iroquois Street, Chickasaw, Mobile County, AL 36611, United States of America"
c62e90fe8fd40e5a,001011011002,MONTG,-86.263394,32.412811,67.1,US,AL,Montgomery,America/Chicago,1400,Coliseum Boulevard,NA,36110,011011002,011011002,PM2.5,Permanent,1002,Active,AL1,Alabama Department of Environmental Management,R4,-6,33860," Montgomery, AL ",01,101,NA,"Alabama Department of Environmental Management, 1400 Coliseum Boulevard, Kilby, Montgomery, AL 36110, United States of America"
c01a303f1dcaeb1a,001011030011,DECATUR,-86.9706,34.5286,172.78,US,AL,Morgan,America/Chicago,NA,Wallace Drive Southeast,NA,35603-1410,011030011,011030011,PM2.5,Permanent,0011,Active,AL1,Alabama Department of Environmental Management,R4,-6,19460," Decatur, AL ",01,103,NA,"Wallace Drive Southeast, Flint City, Decatur, AL 35603-1410, United States of America"
2b2af3141f0ef231,001011130003,PC South Girard School,-84.999653,32.437028,98.57,US,AL,Russell,America/New_York,NA,6th Place South,Phenix City,31901,011130003,011130003,PM2.5,Permanent,0003,Active,AL1,Alabama Department of Environmental Management,R4,-6,17980," Columbus, GA-AL ",01,113,NA,"6th Place South, Garrett Heights, Phenix City, AL 31901, United States of America"
ccd7022428f4f42b,001011190003,Ward,-88.27792,32.36253,63.18,US,AL,Sumter,America/Chicago,NA,unnamed road,NA,NA,011190003,011190003,PM2.5,Permanent,0003,Active,AL1,Alabama Department of Environmental Management,R4,-6,NA,NA,01,119,NA,"unnamed road, Ward, Sumter County, AL, United States of America"
aabe1c9518d0deaa,840020200018,Garden,-149.8246,61.205861,38.7,US,AK,Anchorage,America/Anchorage,NA,Sunrise Drive,NA,99508,020200018,020200018,PM2.5,Permanent,0018,Active,AK1,State of Alaska DEC,R10,-9,11260," Anchorage, AK ",02,020,NA,"Anchorage, Trinity Christian Reformed Church, Sunrise Drive, Anchorage, AK 99508"
67e6a0fe8e40f86b,840020500001,Bethel,-161.767,60.79583,0.9,US,AK,Bethel,America/Anchorage,402,5th Avenue,Bethel,99559,020500001,020500001,PM2.5,Permanent,0001,Active,AK1,State of Alaska DEC,R10,-9,NA,NA,02,050,NA,"402 5th Avenue, Bethel, AK 99559, United States of America"
a0ae2c387b6e3ec4,840020900034,NCore,-147.72727,64.8458,132.1,US,AK,Fairbanks North Star,America/Anchorage,NA,River Street,NA,99701-6161,020900034,020900034,PM2.5,Permanent,0034,Active,AK1,State of Alaska DEC,R10,-9,21820," Fairbanks, AK ",02,090,NA,"River Street, Slaterville, Fairbanks, AK 99701-6161, United States of America"
ba97c8ff6023edb2,840020900035,Hurst Road,-147.310297,64.762973,144.9,US,AK,Fairbanks North Star,America/Anchorage,3288,Hurst Road,NA,99705,020900035,020900035,PM2.5,Permanent,0035,Active,AK1,State of Alaska DEC,R10,-9,21820," Fairbanks, AK ",02,090,NA,"3288 Hurst Road, Highland Park, North Pole, AK 99705, United States of America"
1c8ace316889064c,840020900040,A Street,-147.693278,64.845931,134.88,US,AK,Fairbanks North Star,America/Anchorage,NA,Dunbar Avenue,NA,99703,840020900040,840020900040,PM2.5,Permanent,0040,Active,AK1,State of Alaska DEC,R10,-9,21820," Fairbanks, AK ",02,090,NA,"Nordale Elementary School, Dunbar Avenue, Hamilton Acres, Fairbanks, AK 99703, United States of America"
dc0ffc52b921c754,840021100004,Floyd Dryden,-134.565556,58.388889,14.9,US,AK,Juneau,America/Juneau,8493,Nugget Drive,NA,99801,021100004,021100004,PM2.5,Permanent,0004,Active,AK1,State of Alaska DEC,R10,-9,NA,NA,02,110,NA,"8493 Nugget Drive, Mendenhall Valley, Juneau, AK 99801, United States of America"
41191a92deaf0996,840021700008,Butte (Harrison Court),-149.031655,61.534163,29.9,US,AK,Matanuska-Susitna,America/Anchorage,4315,J West Court,NA,99645,021700008,021700008,PM2.5,Permanent,0008,Active,AK1,State of Alaska DEC,R10,-9,NA,NA,02,170,NA,"4315 J West Court, Matanuska-Susitna, AK 99645, United States of America"
989fa5ab4b1521f8,840040059999,Grand Canyon ozone bench,-112.107028,36.060444,2124.3,US,AZ,Coconino,America/Phoenix,NA,Mather Point Amphitheatre,NA,NA,840040059999,840040059999,PM2.5,Permanent,9999,Active,NPS,National Park Service,USEPA,-7,NA,NA,04,005,NA,"Mather Point Amphitheatre, Grand Canyon Village, Coconino County, AZ, United States of America"
0d4d2b8359a40576,840040128000,Alamo Lake,-113.558611,34.243889,403.2,US,AZ,La Paz,America/Phoenix,NA,Cholla Road,NA,NA,040128000,040128000,PM2.5,Permanent,8000,Active,AZ1,Arizona Department of Environmental Quality,R9,-7,NA,NA,04,012,NA,"Cholla Road, La Paz County, AZ, United States of America"
efa2a776f6206e60,840040130019,West Phoenix,-112.142601,33.483799,333.1,US,AZ,Maricopa,America/Phoenix,3907,West Earll Drive,NA,85019,040130019,040130019,PM2.5,Permanent,0019,Active,AZ2,Maricopa County Air Quality Department,R9,-7,38060," Phoenix-Mesa-Scottsdale, AZ ",04,013,NA,"3907 West Earll Drive, Phoenix, AZ 85019, United States of America"
cb3fdefb8abf0787,840040131003,Mesa - Brooks Reservoir,-111.8651,33.4105,383.1,US,AZ,Maricopa,America/Phoenix,201,South Brooks,NA,85202,040131003,040131003,PM2.5,Permanent,1003,Active,AZ2,Maricopa County Air Quality Department,R9,-7,38060," Phoenix-Mesa-Scottsdale, AZ ",04,013,NA,"201 South Brooks, Mesa, AZ 85202, United States of America"
26f65bf0fff98797,840040131004,North Phoenix,-112.066299,33.560299,378.5,US,AZ,Maricopa,America/Phoenix,8459,North 6th Street,NA,85020,040131004,040131004,PM2.5,Permanent,1004,Active,AZ2,Maricopa County Air Quality Department,R9,-7,38060," Phoenix-Mesa-Scottsdale, AZ ",04,013,NA,"8459 North 6th Street, Phoenix, AZ 85020, United States of America"
690b15f909210dcc,840040132001,Glendale Community College,-112.1915,33.5694,350.4,US,AZ,Maricopa,America/Phoenix,6000,West Olive Avenue,NA,85302,040132001,040132001,PM2.5,Permanent,2001,Active,AZ2,Maricopa County Air Quality Department,R9,-7,38060," Phoenix-Mesa-Scottsdale, AZ ",04,013,NA,"Glendale Community College, 6000 West Olive Avenue, Glendale, AZ 85302, United States of America"
a874e1eca822a294,840040134003,South Phoenix,-112.0731,33.4033,307.4,US,AZ,Maricopa,America/Phoenix,4777,South Central Avenue,NA,85040,040134003,040134003,PM2.5,Permanent,4003,Active,AZ2,Maricopa County Air Quality Department,R9,-7,38060," Phoenix-Mesa-Scottsdale, AZ ",04,013,NA,"4777 South Central Avenue, Phoenix, AZ 85040, United States of America"
6e20b0773940c06d,840040134005,Tempe,-111.9347,33.4124,352.3,US,AZ,Maricopa,America/Phoenix,1459,South College Avenue,NA,85281,040134005,040134005,PM2.5,Permanent,4005,Active,AZ2,Maricopa County Air Quality Department,R9,-7,38060," Phoenix-Mesa-Scottsdale, AZ ",04,013,NA,"1459 South College Avenue, Tempe, AZ 85281, United States of America"
5371ca54a9476a17,840040134021,Eastwood,-112.002642,33.41046,342.26,US,AZ,Maricopa,America/Phoenix,NA,Maricopa Freeway,NA,85040,040134021,040134021,PM2.5,Permanent,4021,Active,AZ2,Maricopa County Air Quality Department,R9,-7,38060," Phoenix-Mesa-Scottsdale, AZ ",04,013,NA,"Maricopa Freeway, Phoenix, AZ 85040, United States of America"
17a59f433eff57d8,840040139812,Durango Complex,-112.1181,33.4265,316.9,US,AZ,Maricopa,America/Phoenix,NA,R C Esterbrooks Boulevard,NA,85007-3300,040139812,040139812,PM2.5,Permanent,9812,Active,AZ2,Maricopa County Air Quality Department,R9,-7,38060," Phoenix-Mesa-Scottsdale, AZ ",04,013,NA,"R C Esterbrooks Boulevard, Phoenix, AZ 85007-3300, United States of America"
2a1446583b14069d,840040139997,Phoenix JLG Supersite,-112.095001,33.503601,315.7,US,AZ,Maricopa,America/Phoenix,1675,West Hazelwood Street,NA,85015,040139997,040139997,PM2.5,Permanent,9997,Active,AZ1,Arizona Department of Environmental Quality,R9,-7,38060," Phoenix-Mesa-Scottsdale, AZ ",04,013,NA,"1675 West Hazelwood Street, Phoenix, AZ 85015, United States of America"
a71d1e916fa2acdf,840040190011,Orange Grove,-111.037709,32.322573,681.3,US,AZ,Pima,America/Phoenix,NA,North Lime Way,NA,85741,040190011,040190011,PM2.5,Permanent,0011,Active,AZ3,Pima County Department of Environmental Quality,R9,-7,NA,NA,04,019,NA,"Orange Grove Estates, North Lime Way, Pima County, AZ 85741, United States of America"
9d721db598266581,840040191028,Children's Park Site,-110.9822,32.2953,700.9,US,AZ,Pima,America/Phoenix,4917,North Via Carina,NA,85704,040191028,040191028,PM2.5,Permanent,1028,Active,AZ3,Pima County Department of Environmental Quality,R9,-7,46060," Tucson, AZ ",04,019,NA,"4917 North Via Carina, Pima County, AZ 85704, United States of America"
f1726343fbc19a10,840040191030,Green Valley,-110.9964,31.8794,891.86,US,AZ,Pima,America/Phoenix,NA,unnamed road,NA,85614,040191030,040191030,PM2.5,Permanent,1030,Active,AZ3,Pima County Department of Environmental Quality,R9,-7,46060," Tucson, AZ ",04,019,NA,"unnamed road, Pima County, AZ 85614, United States of America"
2903852e26e38255,840040191032,Rose Elementary,-110.9797,32.1731,743.3,US,AZ,Pima,America/Phoenix,NA,South 14th Avenue,NA,85713,040191032,040191032,PM2.5,Permanent,1032,Active,AZ3,Pima County Department of Environmental Quality,R9,-7,46060," Tucson, AZ ",04,019,NA,"C E Rose Elementary School, South 14th Avenue, Tucson, AZ 85713, United States of America"
c5720b13945e7ed9,840040191034,Coachline,-111.1272,32.3806,641.12,US,AZ,Pima,America/Phoenix,9598,North Desert Mist Lane,Marana,85743,040191034,040191034,PM2.5,Permanent,1034,Active,AZ3,Pima County Department of Environmental Quality,R9,-7,46060," Tucson, AZ ",04,019,NA,"9598 North Desert Mist Lane, Marana, AZ 85743, United States of America"
7911aac04aee4f6e,840040191113,Geronimo,-110.9667,32.25,747.9,US,AZ,Pima,America/Phoenix,NA,East Grant Road,NA,85709,040191113,040191113,PM2.5,Permanent,1113,Active,AZ3,Pima County Department of Environmental Quality,R9,-7,46060," Tucson, AZ ",04,019,NA,"Chef Wang, East Grant Road, Tucson, AZ 85709, United States of America"
b46cae7c10730761,021040210001,Casa Grande Downtown,-111.752222,32.877583,427.1,US,AZ,Pinal,America/Phoenix,501,North Marshall Street,Casa Grande,86122,040210001,040210001,PM2.5,Permanent,0001,Active,AZ4,Pinal County Air Quality Control District,R9,-7,38060," Phoenix-Mesa-Scottsdale, AZ ",04,021,NA,"501 North Marshall Street, Casa Grande, AZ 86122, United States of America"
4acfb3843fa942f0,021040213015,Hidden Valley,-112.03705,32.884761,406.2,US,AZ,Pinal,America/Phoenix,NA,West Carefree Place,NA,85239,040213015,040213015,PM2.5,Permanent,3015,Active,AZ4,Pinal County Air Quality Control District,R9,-7,NA,NA,04,021,NA,"West Carefree Place, Pinal County, AZ 85239, United States of America"
ca849062e360ecd3,840040230004,Nogales Post Office,-110.936722,31.337204,1176.7,US,AZ,Santa Cruz,America/Phoenix,23,East Hudgins Street,Nogales,85621,040230004,040230004,PM2.5,Permanent,0004,Active,AZ1,Arizona Department of Environmental Quality,R9,-7,35700," Nogales, AZ ",04,023,NA,"23 East Hudgins Street, Nogales, AZ 85621, United States of America"
619785ace1f0a3c5,840040278011,Yuma Supersite,-114.614441,32.690277,59.8,US,AZ,Yuma,America/Phoenix,599,East 20th Street,NA,85364,040278011,040278011,PM2.5,Permanent,8011,Active,AZ1,Arizona Department of Environmental Quality,R9,-7,49740," Yuma, AZ ",04,027,NA,"599 East 20th Street, Yuma, AZ 85364, United States of America"
c4b07c456167bec8,840050350005,MARION,-90.1911,35.1967,66.46,US,AR,Crittenden,America/Chicago,722,L H Polk Drive,Marion,72364,050350005,050350005,PM2.5,Permanent,0005,Active,AR1,Arkansas Department of Environmental Quality,R6,-6,32820," Memphis, TN-MS-AR ",05,035,NA,"722 L H Polk Drive, Marion, AR 72364, United States of America"
eac781fa58bb673e,840051190007,PARR,-92.2758,34.756100000000004,75.72,US,AR,Pulaski,America/Chicago,NA,Karrott Street,North Little Rock,72114,051190007,051190007,PM2.5,Permanent,0007,Active,AR1,Arkansas Department of Environmental Quality,R6,-6,30780," Little Rock-North Little Rock, AR ",05,119,NA,"Karrott Street, North Little Rock, AR 72114, United States of America"
cfb8e246114f157b,840051191008,ADEQ-DSR,-92.3283,34.6811,105.76,US,AR,Pulaski,America/Chicago,NA,Doyle Springs Road,NA,72209,051191008,051191008,PM2.5,Permanent,1008,Active,AR1,Arkansas Department of Environmental Quality,R6,-6,30780," Little Rock-North Little Rock, AR ",05,119,NA,"Little Rock Fire Station 17, Doyle Springs Road, Little Rock, AR 72209, United States of America"
94760bd567c8c2b3,840051390006,El Dorado,-92.6689,33.215,79.59,US,AR,Union,America/Chicago,NA,West Faulkner Street,El Dorado,71730,051390006,051390006,PM2.5,Permanent,0006,Active,AR1,Arkansas Department of Environmental Quality,R6,-6,20980," El Dorado, AR ",05,139,NA,"Barton Middle School, West Faulkner Street, El Dorado, AR 71730, United States of America"
eeb806d24ac70869,840051430005,SPRNGDLE,-94.1167,36.1797,407.2,US,AR,Washington,America/Chicago,507,South Old Missouri Road,NA,72764,051430005,051430005,PM2.5,Permanent,0005,Active,AR1,Arkansas Department of Environmental Quality,R6,-6,22220," Fayetteville-Springdale-Rogers, AR-MO ",05,143,NA,"507 South Old Missouri Road, Springdale, AR 72764, United States of America"
41f1aaf995e77b10,840060010007,Livermore - Rincon,-121.784217,37.687526,137.3,US,CA,Alameda,America/Los_Angeles,777,Rincon Avenue,Livermore,94551,060010007,060010007,PM2.5,Permanent,0007,Active,CA2,San Francisco Bay Area AQMD,R9,-8,41860," San Francisco-Oakland-Fremont, CA ",06,001,NA,"Ben's Burgers, 777 Rincon Avenue, Livermore, CA 94551, United States of America"
ccdef3f0f6591e77,840060010009,Oakland,-122.169907,37.743061,9.8,US,CA,Alameda,America/Los_Angeles,9925,International Boulevard,NA,NA,060010009,060010009,PM2.5,Permanent,0009,Active,CA2,San Francisco Bay Area AQMD,R9,-8,41860," San Francisco-Oakland-Fremont, CA ",06,001,NA,"9925 International Boulevard, Oakland, CA, United States of America"
7157b3dbac7c2043,840060010011,Oakland West,-122.282402,37.8148,2.7,US,CA,Alameda,America/Los_Angeles,2139,Linden Street,NA,94607,060010011,060010011,PM2.5,Permanent,0011,Active,CA2,San Francisco Bay Area AQMD,R9,-8,41860," San Francisco-Oakland-Fremont, CA ",06,001,NA,"2139 Linden Street, Oakland, CA 94607, United States of America"
06c3f2a66f8b708e,840060010012,Laney College,-122.263376,37.793624,4,US,CA,Alameda,America/Los_Angeles,NA,Channel Path,NA,94606-3636,060010012,060010012,PM2.5,Permanent,0012,Active,CA2,San Francisco Bay Area AQMD,R9,-8,41860," San Francisco-Oakland-Fremont, CA ",06,001,NA,"Student Parking, Channel Path, Oakland, CA 94606-3636, United States of America"
fc7e94fa9b4cf9c6,840060010013,Berkeley Aquatic Park,-122.302741,37.864767,2.7,US,CA,Alameda,America/Los_Angeles,NA,Bolivar Drive,NA,94710,060010013,060010013,PM2.5,Permanent,0013,Active,CA2,San Francisco Bay Area AQMD,R9,-8,NA,NA,06,001,NA,"Berkeley Big People, Bolivar Drive, Berkeley, CA 94710, United States of America"
a5f68976d4d94e7e,840060010015,Pleasanton - Owens Ct.,-121.903019,37.701222,100.3,US,CA,Alameda,America/Los_Angeles,NA,Arthur H. Breed Junior Freeway,Pleasanton,94588,060010015,060010015,PM2.5,Permanent,0015,Active,CA2,San Francisco Bay Area AQMD,R9,-8,41860," San Francisco-Oakland-Fremont, CA ",06,001,NA,"Arthur H. Breed Junior Freeway, Pleasanton, CA 94588, United States of America"
2fb8ea63bee2cee6,840060070008,Chico -  East,-121.84047,39.76168,62.8,US,CA,Butte,America/Los_Angeles,NA,North Avenue,NA,95973,060070008,060070008,PM2.5,Permanent,0008,Active,CA8,California Air Resources Board,R9,-8,NA,NA,06,007,NA,"John A. McManus Elementary School, North Avenue, Chico, CA 95973, United States of America"
e56ac0478a026c74,840060072001,Paradise - Birch Street,-121.6244,39.7539,525.35,US,CA,Butte,America/Los_Angeles,NA,Black Olive Drive,Paradise,95969,060072001,060072001,PM2.5,Permanent,2001,Active,BUT,Butte County Air Quality Management District,R9,-8,17020," Chico, CA ",06,007,NA,"Paradise Police Station, Black Olive Drive, Paradise, CA 95969, United States of America"
23932caa3338b243,840060072002,Paradise Theater,-121.59135,39.77919,635.39,US,CA,Butte,America/Los_Angeles,6701,Clark Road,Paradise,95969,060072002,060072002,PM2.5,Permanent,2002,Active,CA8,California Air Resources Board,R9,-8,NA,NA,06,007,NA,"Paradise Cinema 7, 6701 Clark Road, Paradise, CA 95969, United States of America"
fd5dec442c98baf5,840060074001,Gridley,-121.66881,39.32756,26.8,US,CA,Butte,America/Los_Angeles,620,Cowee Avenue,NA,95948,060074001,060074001,PM2.5,Permanent,4001,Active,CA8,California Air Resources Board,R9,-8,17020," Chico, CA ",06,007,NA,"620 Cowee Avenue, Butte County, CA 95948, United States of America"
018592228ffbec63,840060090001,San Andreas,-120.680277,38.20185,300.1,US,CA,Calaveras,America/Los_Angeles,350,High School Street,NA,95249,060090001,060090001,PM2.5,Permanent,0001,Active,CA8,California Air Resources Board,R9,-8,NA,NA,06,009,NA,"Calaveras High School, 350 High School Street, San Andreas, Calaveras County, CA 95249, United States of America"
2b38c357ed3ded59,840060110007,Cortina Rancheria,-122.286111,39.015,244.3,US,CA,Colusa,America/Los_Angeles,NA,Spring Valley Road,NA,NA,060110007,060110007,PM2.5,Permanent,0007,Active,TRX,Quality Review and Exchange System for Tribes (QREST),R8,-8,NA,NA,06,011,NA,"Spring Valley Road, Colusa County, CA, United States of America"
da1687e135831f63,840060111002,Colusa - Sunrise Blvd.,-121.99887,39.18919,14.43,US,CA,Colusa,America/Los_Angeles,NA,Moonbend Road,NA,95932,060111002,060111002,PM2.5,Permanent,1002,Active,CA8,California Air Resources Board,R9,-8,NA,NA,06,011,NA,"Colusa Golf and Country Course, Moonbend Road, Colusa County, CA 95932, United States of America"
68103540a2adcfcf,840060130002,Concord,-122.025,37.9383,26.91,US,CA,Contra Costa,America/Los_Angeles,NA,Oak Grove Road,NA,94519,060130002,060130002,PM2.5,Permanent,0002,Active,CA2,San Francisco Bay Area AQMD,R9,-8,41860," San Francisco-Oakland-Fremont, CA ",06,013,NA,"Chevron, Oak Grove Plaza, Oak Grove Road, Meinert, Concord, CA 94519, United States of America"
0377d688fd94f06e,840060131004,San Pablo - Rumrill,-122.3571,37.9604,19.8,US,CA,Contra Costa,America/Los_Angeles,1899,Rumrill Boulevard,San Pablo,94806,060131004,060131004,PM2.5,Permanent,1004,Active,CA2,San Francisco Bay Area AQMD,R9,-8,41860," San Francisco-Oakland-Fremont, CA ",06,013,NA,"1899 Rumrill Boulevard, San Pablo, CA 94806, United States of America"
d3df63d86b5901fe,840060190011,Fresno - Garland,-119.77321,36.78538,97,US,CA,Fresno,America/Los_Angeles,3083,East Garland Avenue,NA,93726,060190011,060190011,PM2.5,Permanent,0011,Active,CA8,California Air Resources Board,R9,-8,NA,NA,06,019,NA,"3083 East Garland Avenue, Fresno, CA 93726, United States of America"
e8f98ea69c1a4ed8,840060192008,Huron,-120.0991,36.1994,112.34,US,CA,Fresno,America/Los_Angeles,16785,4th Street,NA,93234,060192008,060192008,PM2.5,Permanent,2008,Active,CA6,San Joaquin Valley Unified APCD,R9,-8,NA,NA,06,019,NA,"16785 4th Street, Huron, CA 93234, United States of America"
02a186e457865ed0,840060192009,Tranquillity,-120.3822,36.6324,59.06,US,CA,Fresno,America/Los_Angeles,32534,West Adams Avenue,NA,93640,060192009,060192009,PM2.5,Permanent,2009,Active,CA6,San Joaquin Valley Unified APCD,R9,-8,NA,NA,06,019,NA,"32534 West Adams Avenue, Fresno County, CA 93640, United States of America"
feda23a3233e4d95,840060192016,Fresno-Foundry Park,-119.77743,36.71088,86.17,US,CA,Fresno,America/Los_Angeles,NA,CA 99,NA,93721,060192016,060192016,PM2.5,Permanent,2016,Active,CA6,San Joaquin Valley Unified APCD,R9,-8,23420," Fresno, CA ",06,019,NA,"CA 99, Fresno, CA 93721, United States of America"
375acde075bf08c2,840060195001,Clovis - N. Villa Ave,-119.7164,36.819199,107.62,US,CA,Fresno,America/Los_Angeles,NA,Oak Avenue,Clovis,93612,060195001,060195001,PM2.5,Permanent,5001,Active,CA6,San Joaquin Valley Unified APCD,R9,-8,23420," Fresno, CA ",06,019,NA,"Oak Avenue, Clovis, CA 93612, United States of America"
7d31540c7b4566b5,840060195025,Fresno-Pacific,-119.73249,36.72622,93.1,US,CA,Fresno,America/Los_Angeles,NA,South Garden Avenue,NA,93727,840060195025,840060195025,PM2.5,Permanent,5025,Active,CA6,San Joaquin Valley Unified APCD,R9,-8,23420," Fresno, CA ",06,019,NA,"Fresno Pacific University, South Garden Avenue, Fresno, CA 93727, United States of America"
9afcd82a19794151,840060199999,Pinehurst,-119.0189,36.6972,1236.96,US,CA,Fresno,America/Los_Angeles,NA,unnamed road,NA,93641,840060199999,840060199999,PM2.5,Permanent,9999,Active,FS1,Forest Service,USEPA,-8,NA,NA,06,019,NA,"unnamed road, Pinehurst, Fresno County, CA 93641, United States of America"
ad30c5f4f8b7f894,840060210003,Willows-Colusa,-122.190834,39.53387,13.7,US,CA,Glenn,America/Los_Angeles,NA,North Colusa Street,Willows,95988,060210003,060210003,PM2.5,Permanent,0003,Active,CA8,California Air Resources Board,R9,-8,NA,NA,06,021,NA,"North Colusa Street, Willows, CA 95988, United States of America"
a4a63f79a6cd0a6a,840060250005,Calexico - Ethel Street,-115.48307,32.67618,2.21,US,CA,Imperial,America/Los_Angeles,NA,Ethel Street,Calexico,92231,060250005,060250005,PM2.5,Permanent,0005,Active,CA8,California Air Resources Board,R9,-8,20940," El Centro, CA ",06,025,NA,"Calexico High School, Ethel Street, Calexico, CA 92231, United States of America"
a70616fb239bf20b,840060250007,Brawley - 220 Main Street,-115.5383,32.978298,-33.05,US,CA,Imperial,America/Los_Angeles,NA,Main Street,Brawley,92227,060250007,060250007,PM2.5,Permanent,0007,Active,CA0,Imperial County Air Pollution Control District,R9,-8,20940," El Centro, CA ",06,025,NA,"First Church of Christ Scientist, Main Street, Brawley, CA 92227, United States of America"
2b51fab4dfaf4fc0,840060251003,El Centro - 9th Street,-115.5617,32.7917,-12.57,US,CA,Imperial,America/Los_Angeles,819,West State Street,NA,92243,060251003,060251003,PM2.5,Permanent,1003,Active,CA0,Imperial County Air Pollution Control District,R9,-8,20940," El Centro, CA ",06,025,NA,"819 West State Street, El Centro, CA 92243, United States of America"
2e41f0a780d01a88,840060254003,Westmorland - 570 Cook St,-115.6225,33.0325,-48.37,US,CA,Imperial,America/Los_Angeles,5274,Forrester Road,NA,92281,060254003,060254003,PM2.5,Permanent,4003,Active,CA0,Imperial County Air Pollution Control District,R9,-8,20940," El Centro, CA ",06,025,NA,"5274 Forrester Road, Westmorland, CA 92281, United States of America"
aeefff99aa8d62c0,840060254004,Niland - English Road,-115.5444,33.2136,-60.64,US,CA,Imperial,America/Los_Angeles,7706,English Road,NA,92257,060254004,060254004,PM2.5,Permanent,4004,Active,CA0,Imperial County Air Pollution Control District,R9,-8,20940," El Centro, CA ",06,025,NA,"7706 English Road, Imperial County, CA 92257, United States of America"
dba650055b93cf2a,840060270002,NCORE - Bishop,-118.330835,37.360701,1232.5,US,CA,Inyo,America/Los_Angeles,NA,Poleta Road,NA,93515,060270002,060270002,PM2.5,Permanent,0002,Active,GBU,Great Basin Unified Air Pollution Control District,R9,-8,13860," Bishop, CA ",06,027,NA,"White Mountain Research Center- Owens Valley Station, Poleta Road, Poleta, Inyo County, CA 93515, United States of America"
3b552e50b9267b5a,840060271003,Keeler,-117.871,36.4878,1103.82,US,CA,Inyo,America/Los_Angeles,593,Old State Highway,NA,93530,060271003,060271003,PM2.5,Permanent,1003,Active,GBU,Great Basin Unified Air Pollution Control District,R9,-8,13860," Bishop, CA ",06,027,NA,"593 Old State Highway, Keeler, Inyo County, CA 93530, United States of America"
b450514f9261c130,840060271018,Lone Pine Paiute/Shoshone Tribe-CA,-118.04,36.5975,1288.9,US,CA,Inyo,America/Los_Angeles,NA,Sub Station Road,NA,93545,060271018,060271018,PM2.5,Permanent,1018,Active,TRX,Quality Review and Exchange System for Tribes (QREST),R8,-8,13860," Bishop, CA ",06,027,NA,"Sub Station Road, Lone Pine, Inyo County, CA 93545, United States of America"
c0568b52ab2910ef,840060271023,Bishop Paiute Tribe-CA,-118.4167,37.3667,1288.9,US,CA,Inyo,America/Los_Angeles,NA,North Tu-Su Lane,NA,NA,060271023,060271023,PM2.5,Permanent,1023,Active,BPT,Bishop Paiute Tribe,R9,-8,13860," Bishop, CA ",06,027,NA,"North Tu-Su Lane, Bishop Paiute Tribal Office, Inyo County, CA, United States of America"
f74da09a85f7fac3,840060290010,Bakersfield - Golden State Highway,-119.014702,35.3853,125.5,US,CA,Kern,America/Los_Angeles,2852,M Street,NA,93301,060290010,060290010,PM2.5,Permanent,0010,Active,CA6,San Joaquin Valley Unified APCD,R9,-8,12540," Bakersfield, CA ",06,029,NA,"2852 M Street, Bakersfield, CA 93301, United States of America"
e85fddd1d9a3dc6c,840060290014,Bakersfield - California Ave,-119.062613,35.356615,118.97,US,CA,Kern,America/Los_Angeles,NA,Kleinpell Avenue,NA,93309-2671,060290014,060290014,PM2.5,Permanent,0014,Active,CA8,California Air Resources Board,R9,-8,12540," Bakersfield, CA ",06,029,NA,"Wayne Van Horn Elementary School, Kleinpell Avenue, Kern City, Bakersfield, CA 93309-2671, United States of America"
55d5c0310a87e23e,840060290019,Mojave - CA 58 Business,-118.162833,35.046528,834.5,US,CA,Kern,America/Los_Angeles,15732,O Street,NA,93501,840060290019,840060290019,PM2.5,Permanent,0019,Active,CA8,California Air Resources Board,R9,-8,12540," Bakersfield, CA ",06,029,NA,"Mojave Junior/Senior High School, 15732 O Street, Mojave, Kern County, CA 93501, United States of America"
5f3a04d606c80aa6,840060292009,Lebec,-118.8647,34.8416,1061.54,US,CA,Kern,America/Los_Angeles,NA,Golden State Freeway,NA,93243,060292009,060292009,PM2.5,Permanent,2009,Active,CA6,San Joaquin Valley Unified APCD,R9,-8,NA,NA,06,029,NA,"Golden State Freeway, Lebec, Kern County, CA 93243, United States of America"
a9b6f77771080026,840060310004,Corcoran,-119.566002,36.102219,62.78,US,CA,Kings,America/Los_Angeles,NA,Letts Avenue,Corcoran,93212,060310004,060310004,PM2.5,Permanent,0004,Active,CA6,San Joaquin Valley Unified APCD,R9,-8,25260," Hanford-Corcoran, CA ",06,031,NA,"John Muir Junior High School, Letts Avenue, Corcoran, CA 93212, United States of America"
9823a35768e9d590,840060311004,Hanford - S. Irwin Street,-119.6436,36.3144,75.24,US,CA,Kings,America/Los_Angeles,NA,South Harris Street,NA,93230,060311004,060311004,PM2.5,Permanent,1004,Active,CA6,San Joaquin Valley Unified APCD,R9,-8,25260," Hanford-Corcoran, CA ",06,031,NA,"Iglesia Cristiana Amigos de Israel, South Harris Street, Hanford, CA 93230, United States of America"
5a01c2d716990f69,840060370016,Glendora - Laurel,-117.8508,34.1439,84.5,US,CA,Los Angeles,America/Los_Angeles,898,East Laurel Avenue,Glendora,91741,060370016,060370016,PM2.5,Permanent,0016,Active,CA3,South Coast AQMD,R9,-8,31100," Los Angeles-Long Beach-Santa Ana, CA ",06,037,NA,"898 East Laurel Avenue, Glendora, CA 91741, United States of America"
c457463e4ba83f93,840060371103,Los Angeles - N. Main Street,-118.226755,34.066429,30.5,US,CA,Los Angeles,America/Los_Angeles,NA,North Main Street,NA,90086,060371103,060371103,PM2.5,Permanent,1103,Active,CA3,South Coast AQMD,R9,-8,31100," Los Angeles-Long Beach-Santa Ana, CA ",06,037,NA,"LADWP Main Street Center, North Main Street, Los Angeles, CA 90086, United States of America"
063ed462f6ea8407,840060371201,Reseda,-118.5331,34.1992,70.8,US,CA,Los Angeles,America/Los_Angeles,18382,Gault Street,NA,91335,060371201,060371201,PM2.5,Permanent,1201,Active,CA3,South Coast AQMD,R9,-8,31100," Los Angeles-Long Beach-Santa Ana, CA ",06,037,NA,"18382 Gault Street, Los Angeles, CA 91335, United States of America"
6452b004b5587c17,840060371302,Compton,-118.205,33.9014,27.5,US,CA,Los Angeles,America/Los_Angeles,1700,East Pixley Street,Compton,90221,060371302,060371302,PM2.5,Permanent,1302,Active,CA3,South Coast AQMD,R9,-8,31100," Los Angeles-Long Beach-Santa Ana, CA ",06,037,NA,"1700 East Pixley Street, Compton, CA 90221, United States of America"
e9311c1665634d95,840060374008,710 Near Road,-118.200707,33.859662,15.58,US,CA,Los Angeles,America/Los_Angeles,NA,Long Beach Freeway,NA,90805,060374008,060374008,PM2.5,Permanent,4008,Active,CA3,South Coast AQMD,R9,-8,NA,NA,06,037,NA,"Long Beach Freeway, Long Beach, CA 90805, United States of America"
83c0c9f96e6cbef9,840060374009,Long Beach Signal Hill,-118.171019,33.793713,7.9,US,CA,Los Angeles,America/Los_Angeles,NA,Gardenia Avenue,NA,90806,840060374009,840060374009,PM2.5,Permanent,4009,Active,CA3,South Coast AQMD,R9,-8,31100," Los Angeles-Long Beach-Santa Ana, CA ",06,037,NA,"Nelson Academy, Gardenia Avenue, Long Beach, CA 90806, United States of America"
4b9668fcd925c7da,840060374010,North Holywood,-118.363036,34.181977,197.9,US,CA,Los Angeles,America/Los_Angeles,NA,Delano Street,NA,91515,840060374010,840060374010,PM2.5,Permanent,4010,Active,CA3,South Coast AQMD,R9,-8,31100," Los Angeles-Long Beach-Santa Ana, CA ",06,037,NA,"Saint Patrick School, Delano Street, Los Angeles, CA 91515, United States of America"
602bb5fe6ae61f95,840060376012,Santa Clarita,-118.5283,34.3833,116.8,US,CA,Los Angeles,America/Los_Angeles,24154,Placerita Canyon Road,NA,91321,060376012,060376012,PM2.5,Permanent,6012,Active,CA3,South Coast AQMD,R9,-8,31100," Los Angeles-Long Beach-Santa Ana, CA ",06,037,NA,"24154 Placerita Canyon Road, Santa Clarita, CA 91321, United States of America"
e3a75c326a9bf2b0,840060379033,Lancaster-Division,-118.130689,34.669589,719.5,US,CA,Los Angeles,America/Los_Angeles,43201,Division Street,NA,93535,060379033,060379033,PM2.5,Permanent,9033,Active,CA7,Mojave Desert AQMD,R9,-8,31100," Los Angeles-Long Beach-Santa Ana, CA ",06,037,NA,"43201 Division Street, Lancaster, CA 93535, United States of America"
0ca32b325ec46de0,840060392010,Madera-City,-120.0341,36.9533,83.54,US,CA,Madera,America/Los_Angeles,NA,Avenue 14,NA,93638,060392010,060392010,PM2.5,Permanent,2010,Active,CA6,San Joaquin Valley Unified APCD,R9,-8,31460," Madera, CA ",06,039,NA,"Avenue 14, Madera, CA 93638, United States of America"
fa6f30bf8fb4fc98,840060410001,San Rafael,-122.5189,37.9722,0.9,US,CA,Marin,America/Los_Angeles,506,Fourth Street,NA,94901,060410001,060410001,PM2.5,Permanent,0001,Active,CA2,San Francisco Bay Area AQMD,R9,-8,41860," San Francisco-Oakland-Fremont, CA ",06,041,NA,"Animal Welness Center, 506 Fourth Street, San Rafael, CA 94901, United States of America"
9f7489899d373324,840060431001,Yosemite Village - Visitor Center,-119.587094,37.748707,1220.69,US,CA,Mariposa,America/Los_Angeles,NA,Bike Path,NA,95389,060431001,060431001,PM2.5,Permanent,1001,Active,CA8,California Air Resources Board,R9,-8,NA,NA,06,043,NA,"Yosemite Valley Visitor Center and Theater, Bike Path, Yosemite Village, Mariposa County, CA 95389, United States of America"
6bbab08e3786ef66,840060450006,Ukiah Library,-123.206528,39.150478,189.1,US,CA,Mendocino,America/Los_Angeles,NA,East Standley Street,Ukiah,95482,060450006,060450006,PM2.5,Permanent,0006,Active,MEN,Mendocino County AQMD,R9,-8,NA,NA,06,045,NA,"Mendocino County Library, East Standley Street, Ukiah, CA 95482, United States of America"
fa86065aa4671ed2,840060452003,Willits Blosser Lane,-123.35872,39.39861,427,US,CA,Mendocino,America/Los_Angeles,NA,Blosser Lane,Willits,95490,840060452003,840060452003,PM2.5,Permanent,2003,Active,MEN,Mendocino County AQMD,R9,-8,NA,NA,06,045,NA,"Blosser Lane Elementary School, Blosser Lane, Willits, CA 95490, United States of America"
4c4aee423ba229f9,840060470003,Merced - S. Coffee Ave,-120.433601,37.2817,55.88,US,CA,Merced,America/Los_Angeles,445,South Coffee Street,NA,95341,060470003,060470003,PM2.5,Permanent,0003,Active,CA6,San Joaquin Valley Unified APCD,R9,-8,32900," Merced, CA ",06,047,NA,"445 South Coffee Street, Merced, CA 95341, United States of America"
1d2803a282c44a87,840060472510,Merced-M St,-120.480361,37.30833,52.1,US,CA,Merced,America/Los_Angeles,2334,M Street,NA,95340,840060472510,840060472510,PM2.5,Permanent,2510,Active,CA6,San Joaquin Valley Unified APCD,R9,-8,32900," Merced, CA ",06,047,NA,"United States Post Office, 2334 M Street, Merced, CA 95340, United States of America"
41f4094e93f7e071,840060510005,Lee Vining,-119.120278,37.962069,2055.35,US,CA,Mono,America/Los_Angeles,NA,Mattly Avenue,NA,93541,060510005,060510005,PM2.5,Permanent,0005,Active,GBU,Great Basin Unified Air Pollution Control District,R9,-8,NA,NA,06,051,NA,"Lee Vining Community Center, Mattly Avenue, Lee Vining, Mono County, CA 93541, United States of America"
a9572a904a4ed46d,840060530002,Carmel Valley AMS,-121.73333,36.48187,200.1,US,CA,Monterey,America/Los_Angeles,NA,Ford Road,NA,NA,060530002,060530002,PM2.5,Permanent,0002,Active,MON,Monterey Bay Unified APCD,R9,-8,41500," Salinas, CA ",06,053,NA,"Tularcitos Elementary School, Ford Road, Carmel Valley, Monterey County, CA, United States of America"
027b1c6b135d09ba,840060530008,King City AMS,-121.126371,36.209286,102.8,US,CA,Monterey,America/Los_Angeles,NA,Luckett Street,NA,93930,060530008,060530008,PM2.5,Permanent,0008,Active,MON,Monterey Bay Unified APCD,R9,-8,NA,NA,06,053,NA,"San Lorenzo Elementary School, Luckett Street, King City, CA 93930, United States of America"
c9fe9c3c096b858a,840060531003,Salinas AMS,-121.623271,36.694261,10.1,US,CA,Monterey,America/Los_Angeles,NA,Constitution Boulevard,NA,93905-4612,060531003,060531003,PM2.5,Permanent,1003,Active,MON,Monterey Bay Unified APCD,R9,-8,41500," Salinas, CA ",06,053,NA,"Monterey County Parks and Flood Control Office, Constitution Boulevard, Salinas, CA 93905-4612, United States of America"
4ffd29b87ac380f0,840060570005,Grass Valley,-121.055603,39.234402,851.19,US,CA,Nevada,America/Los_Angeles,180,Litton Drive,Grass Valley,95945,060570005,060570005,PM2.5,Permanent,0005,Active,NOS,Northern Sierra AQMD,R9,-8,46020," Truckee-Grass Valley, CA ",06,057,NA,"AJA Video Systems, 180 Litton Drive, Spring Hill, Grass Valley, CA 95945, United States of America"
79a4629905c81f6f,840060571001,Truckee BAM,-120.170303,39.3386,1809.34,US,CA,Nevada,America/Los_Angeles,NA,CA 89,Truckee,96161,060571001,060571001,PM2.5,Permanent,1001,Active,NOS,Northern Sierra AQMD,R9,-8,46020," Truckee-Grass Valley, CA ",06,057,NA,"CA 89, Truckee, CA 96161, United States of America"
7bcc8649435d38f1,840060590007,Anaheim,-117.938509,33.830586,15.3,US,CA,Orange,America/Los_Angeles,NA,West Pampas Lane,NA,92802,060590007,060590007,PM2.5,Permanent,0007,Active,CA3,South Coast AQMD,R9,-8,31100," Los Angeles-Long Beach-Santa Ana, CA ",06,059,NA,"Loara Elementary School, West Pampas Lane, Anaheim, CA 92802, United States of America"
f173494f847f816a,840060592022,Mission Viejo,-117.675875,33.629991,122,US,CA,Orange,America/Los_Angeles,26081,Via Pera,NA,92691,060592022,060592022,PM2.5,Permanent,2022,Active,CA3,South Coast AQMD,R9,-8,31100," Los Angeles-Long Beach-Santa Ana, CA ",06,059,NA,"26081 Via Pera, Mission Viejo, CA 92691, United States of America"
46207819f4c126bf,840060610003,Auburn,-121.09959,38.93568,437.86,US,CA,Placer,America/Los_Angeles,NA,1st Street,NA,95603,840060610003,840060610003,PM2.5,Permanent,0003,Active,PLA,Placer County APCD,R9,-8,40900," Sacramento--Arden-Arcade--Roseville, CA ",06,061,NA,"1st Street, Placer County, CA 95603, United States of America"
c4bc940afc45e507,840060610004,Colfax,-120.9528,39.1003,738.76,US,CA,Placer,America/Los_Angeles,NA,Grassvalley Street,NA,95713,060610004,060610004,PM2.5,Permanent,0004,Active,PLA,Placer County APCD,R9,-8,40900," Sacramento--Arden-Arcade--Roseville, CA ",06,061,NA,"Colfax, Grassvalley Street, Placer County, CA 95713, United States of America"
f6f94115dd36cfbe,840060610006,Roseville - N.Sunrise/Douglas,-121.26498,38.74643,54.95,US,CA,Placer,America/Los_Angeles,500,North Sunrise Avenue,NA,95661,060610006,060610006,PM2.5,Permanent,0006,Active,CA8,California Air Resources Board,R9,-8,40900," Sacramento--Arden-Arcade--Roseville, CA ",06,061,NA,"500 North Sunrise Avenue, Roseville, CA 95661, United States of America"
f7f10f2abd68c017,840060611004,Tahoe City,-120.1488,39.166,1917.2,US,CA,Placer,America/Los_Angeles,221,Fairway Drive,Tahoe City,96145,060611004,060611004,PM2.5,Permanent,1004,Active,PLA,Placer County APCD,R9,-8,NA,NA,06,061,NA,"Tahoe City Public Utility District, 221 Fairway Drive, Tahoe City, CA 96145, United States of America"
6d6e2620e5510057,840060612003,Lincoln,-121.33835,38.86794,36.23,US,CA,Placer,America/Los_Angeles,2739,Moore Road,NA,95648,840060612003,840060612003,PM2.5,Permanent,2003,Active,PLA,Placer County APCD,R9,-8,40900," Sacramento--Arden-Arcade--Roseville, CA ",06,061,NA,"2739 Moore Road, Lincoln, CA 95648, United States of America"
5642931558b83d66,840060631007,Chester BAM,-121.235001,40.301899,1383.57,US,CA,Plumas,America/Los_Angeles,NA,CA 36,Chester,96020,060631007,060631007,PM2.5,Permanent,1007,Active,NOS,Northern Sierra AQMD,R9,-8,NA,NA,06,063,NA,"Subway, CA 36, Chester, CA 96020, United States of America"
0b97822d89739950,840060631010,Portola,-120.471664,39.808334,1472.56,US,CA,Plumas,America/Los_Angeles,2,West Street,Portola,96122,060631010,060631010,PM2.5,Permanent,1010,Active,NOS,Northern Sierra AQMD,R9,-8,NA,NA,06,063,NA,"2 West Street, Portola, CA 96122, United States of America"
0f46c5073a4b8288,840060639901,Quincy BAM,-120.9478,39.9369,1045.14,US,CA,Plumas,America/Los_Angeles,1,Bradley Street,Quincy,95971,060639901,060639901,PM2.5,Permanent,9901,Active,NOS,Northern Sierra AQMD,R9,-8,NA,NA,06,063,NA,"1 Bradley Street, Quincy, CA 95971, United States of America"
3459cd969fabfd93,840060650010,Joshua Tree NP - Cottonwood Canyon 2,-115.8201,33.7472,948.95,US,CA,Riverside,America/Los_Angeles,NA,unnamed road,NA,NA,060650010,060650010,PM2.5,Permanent,0010,Active,NPS,National Park Service,USEPA,-8,NA,NA,06,065,NA,"unnamed road, Riverside County, CA, United States of America"
4419097d8357a40b,840060650012,Banning - South Hathaway Street,-116.858419,33.920758,671.97,US,CA,Riverside,America/Los_Angeles,1629,Barbour Street,Banning,92220,060650012,060650012,PM2.5,Permanent,0012,Active,CA3,South Coast AQMD,R9,-8,40140," Riverside-San Bernardino-Ontario, CA ",06,065,NA,"1629 Barbour Street, Banning, CA 92220, United States of America"
6da07b2bfb32d06f,840060650016,Temecula (Lake Skinner),-117.072197,33.583099,453.2,US,CA,Riverside,America/Los_Angeles,NA,NA,NA,NA,060650016,060650016,PM2.5,Permanent,0016,Active,CA3,South Coast AQMD,R9,-8,40140," Riverside-San Bernardino-Ontario, CA ",06,065,NA,"Riverside County, California, United States of America"
c7cc2b21d9f11f15,840060658001,Riverside - Rubidoux,-117.415831,33.999449,78.7,US,CA,Riverside,America/Los_Angeles,4033,Riverview Drive,Jurupa Valley,92509,060658001,060658001,PM2.5,Permanent,8001,Active,CA3,South Coast AQMD,R9,-8,40140," Riverside-San Bernardino-Ontario, CA ",06,065,NA,"4033 Riverview Drive, Jurupa Valley, CA 92509, United States of America"
9ca183a5218532e1,840060658005,Mira Loma - Van Buren,-117.4925,33.996387,230.9,US,CA,Riverside,America/Los_Angeles,NA,Poinsetta Place,Jurupa Valley,NA,060658005,060658005,PM2.5,Permanent,8005,Active,CA3,South Coast AQMD,R9,-8,40140," Riverside-San Bernardino-Ontario, CA ",06,065,NA,"Van Buren Elementary School, Poinsetta Place, Bly, Jurupa Valley, CA, United States of America"
64f1800881a058e1,840060659001,Lake Elsinore - W. Flint Street,-117.331027,33.676535,134.2,US,CA,Riverside,America/Los_Angeles,498,North Lindsay Street,Lake Elsinore,92530,060659001,060659001,PM2.5,Permanent,9001,Active,CA3,South Coast AQMD,R9,-8,40140," Riverside-San Bernardino-Ontario, CA ",06,065,NA,"498 North Lindsay Street, Lake Elsinore, CA 92530, United States of America"
342b6e72fc99528b,840060670006,Arden Arcade - Del Paso Manor,-121.368007,38.613804,25.3,US,CA,Sacramento,America/Los_Angeles,2715,Avalon Drive,NA,95821,060670006,060670006,PM2.5,Permanent,0006,Active,CA1,Sacramento Metro. AQMD,R9,-8,40900," Sacramento--Arden-Arcade--Roseville, CA ",06,067,NA,"2715 Avalon Drive, Arden-Arcade, CA 95821, United States of America"
b438a5baebdbae7b,840060670011,Elk Grove,-121.420838,38.302591,6.4,US,CA,Sacramento,America/Los_Angeles,NA,unnamed road,NA,NA,060670011,060670011,PM2.5,Permanent,0011,Active,CA1,Sacramento Metro. AQMD,R9,-8,40900," Sacramento--Arden-Arcade--Roseville, CA ",06,067,NA,"unnamed road, Sacramento County, CA, United States of America"
6f4aa99a58207ac6,840060670012,Folsom,-121.164457,38.683304,101.6,US,CA,Sacramento,America/Los_Angeles,NA,Johnny Cash Trail,Folsom,95671,060670012,060670012,PM2.5,Permanent,0012,Active,CA1,Sacramento Metro. AQMD,R9,-8,40900," Sacramento--Arden-Arcade--Roseville, CA ",06,067,NA,"Folsom City Zoo Sanctuary, Johnny Cash Trail, Folsom, CA 95671, United States of America"
365882eb5497ada3,840060670015,Bercut Dr,-121.503728,38.593328,10.18,US,CA,Sacramento,America/Los_Angeles,184,Bercut Drive,NA,95811,060670015,060670015,PM2.5,Permanent,0015,Active,CA1,Sacramento Metro. AQMD,R9,-8,40900," Sacramento--Arden-Arcade--Roseville, CA ",06,067,NA,"184 Bercut Drive, Sacramento, CA 95811, United States of America"
db782b0970a271dc,840060675003,Sloughhouse,-121.211131,38.494475,59.2,US,CA,Sacramento,America/Los_Angeles,NA,Sloughhouse Road,NA,95830,060675003,060675003,PM2.5,Permanent,5003,Active,CA1,Sacramento Metro. AQMD,R9,-8,40900," Sacramento--Arden-Arcade--Roseville, CA ",06,067,NA,"Sacramento Metro Fire Station Number 58, Sloughhouse Road, Sacramento County, CA 95830, United States of America"
d09f8f20059b04c9,840060690002,Hollister AMS,-121.3621,36.843425,126.92,US,CA,San Benito,America/Los_Angeles,NA,Fairview Road,Hollister,95023-5204,060690002,060690002,PM2.5,Permanent,0002,Active,MON,Monterey Bay Unified APCD,R9,-8,41940," San Jose-Sunnyvale-Santa Clara, CA ",06,069,NA,"Calif Dept of Forestry, Fairview Road, Hollister, CA 95023-5204, United States of America"
9d351a51e74a87ec,840060710005,Crestline - Lake Gregory,-117.272275,34.243132,1387.8,US,CA,San Bernardino,America/Los_Angeles,NA,Lake Gregory Trail,Crestline,92325,060710005,060710005,PM2.5,Permanent,0005,Active,CA3,South Coast AQMD,R9,-8,40140," Riverside-San Bernardino-Ontario, CA ",06,071,NA,"Lake Gregory Trail, Crestline, CA 92325, United States of America"
76a2ac0a404c2485,840060710027,60 Near Road,-117.617403,34.0309,251.82,US,CA,San Bernardino,America/Los_Angeles,NA,Pomona Freeway,NA,91761,060710027,060710027,PM2.5,Permanent,0027,Active,CA3,South Coast AQMD,R9,-8,NA,NA,06,071,NA,"Pomona Freeway, Ontario, CA 91761, United States of America"
