locationID,locationName,longitude,latitude,elevation,countryCode,stateCode,countyName,timezone,houseNumber,street,city,zip,AQSID,airnow_parameterName,airnow_siteCode,airnow_status,airnow_agencyID,airnow_agencyName,airnow_EPARegion,airnow_GMTOffsetHours,airnow_FIPSMSACode,airnow_MSAName
ff93e44a39b72bc9,CPS Pecan Valley C678,-98.4311,29.4072,189.1,US,TX,Bexar,America/Chicago,NA,NA,NA,NA,480290055,PM2.5,0055,Inactive,TX1,Texas Commission on Environmental Quality,R6,-6,41700," San Antonio, TX "
f6b4431a3529dad4,LLCHD BAM,-96.675733,40.812558,NA,US,NE,Lancaster,America/Chicago,NA,NA,NA,NA,311090022,PM2.5,0022,Active,NE4,Lincoln-Lancaster County Health Department,R7,-6,30700," Lincoln, NE "
103acd92f08f8fe4,Chatfield Park - 11500 N. Roxborough Park Rd.,-105.07,39.5339,1571.1,US,CO,Douglas,America/Denver,NA,NA,NA,NA,080350004,PM2.5,0004,Active,CO1,Colorado Department of Public Health and Environment,R8,-7,19740," Denver-Aurora, CO "
a43d3d552e128bf3,Grand Island DOT,-98.378889,40.918333,573.1,US,NE,Hall,America/Chicago,NA,NA,NA,NA,840310790005,PM2.5,0790,Active,NE1,Nebraska Department of Environment and Energy,R7,-6,24260," Grand Island, NE "
8f16b16a0443f809,Houston Park Place C416,-95.294724,29.68639,9.2,US,TX,Harris,America/Chicago,NA,NA,NA,NA,482010416,PM2.5,0416,Active,TX1,Texas Commission on Environmental Quality,R6,-6,26420," Houston-Sugar Land-Baytown, TX "
7c8794deca8111d0,Harrisville,-111.988297,41.302799,1339.6,US,UT,Weber,America/Denver,NA,NA,NA,NA,490571003,PM2.5,1003,Active,UT1,Utah Department of Environmental Quality,R8,-7,36260," Ogden-Clearfield, UT "
b7aeb59ac1f0a49e,Athabasca Valley,-111.39,56.7328,NA,CA,AB,NA,America/Edmonton,NA,NA,NA,NA,000090701,PM2.5,0701,Active,AB1,Alberta Environmental Monitoring and Reporting Agency (AEMERA),CA,-7,NA,NA
05b2762b8e177f68,Big Bend  NP,-103.178101,29.3025,1052.3,US,TX,Brewster,America/Chicago,NA,NA,NA,NA,480430101,PM2.5,0101,Active,NPS,National Park Service,USEPA,-6,NA,NA
d99194af7a11793f,Rancho Seco,-121.109977,38.343812,68,US,CA,Sacramento,America/Los_Angeles,NA,NA,NA,NA,060679991,PM2.5,9991,Inactive,CA1,Sacramento Metro. AQMD,R9,-8,40900," Sacramento--Arden-Arcade--Roseville, CA "
c6a2402081df5b54,Bangor KPS,-68.769676,44.798859,NA,US,ME,Penobscot,America/New_York,NA,NA,NA,NA,230190002,PM2.5,0002,Inactive,ME1,Maine Dept. of Environmental Protection,R1,-5,12620," Bangor, ME "
8c27cd75aa1f9c9b,Estación Seguridad Pública,-100.81591,20.518317,498.1,MX,GJ,NA,America/Mexico_City,NA,NA,NA,NA,80011G001,PM2.5,G001,Active,IEG,Secretaría de Medio Ambiente y Ordenamiento Territorial,MX,-6,NA,NA
c1ad51626ffd4414,Maple Falls-Azure Way,-122.1471,48.9477,NA,US,WA,Whatcom,America/Los_Angeles,NA,NA,NA,NA,840530739992,PM2.5,0739,Active,WA1,Washington Department of Ecology,R10,-8,NA,NA
d1e45e4d3b331ba3,Anacortes-Bartholomew Rd (US),-122.559998,48.465401,9.8,US,WA,Skagit,America/Los_Angeles,NA,NA,NA,NA,530579999,PM2.5,9999,Active,WA1,Washington Department of Ecology,R10,-8,NA,NA
e440ca77f59663d0,Duncan,-73.663913,45.502648,NA,CA,QC,NA,America/Toronto,NA,NA,NA,NA,CC0050109,PM2.5,0109,Active,QC2,Canada-Quebec2,CA,-5,NA,NA
f967e94c9bc679b0,Hermiston - Municipal Airport,-119.262991,45.828968,194,US,OR,Umatilla,America/Los_Angeles,NA,NA,NA,NA,410591003,PM2.5,1003,Active,OR1,Oregon Dept. of Environmental Quality,R10,-8,37820," Pendleton-Hermiston, OR "
5034397ad4038152,Minneapolis - Wenonah School,-93.238297,44.9006,257.1,US,MN,Hennepin,America/Chicago,NA,NA,NA,NA,270530969,PM2.5,0969,Inactive,MN1,Minnesota Pollution Control Agency,R5,-6,33460," Minneapolis-St. Paul-Bloomington, MN-WI "
c9fe9c3c096b858a,Salinas AMS,-121.623271,36.694261,10.1,US,CA,Monterey,America/Los_Angeles,NA,NA,NA,NA,060531003,PM2.5,1003,Active,MON,Monterey Bay Unified APCD,R9,-8,41500," Salinas, CA "
3858898d0bfd9a5c,Maspeth,-73.8933,40.7269,NA,US,NY,Queens,America/New_York,NA,NA,NA,NA,360810120,PM2.5,0120,Active,NY1,New York Dept. of Environmental Conservation,R2,-5,35620," New York-Northern New Jersey-Long Island, NY-NJ-PA "
053a5a8f35a26e84,Presidio of Monterey,-121.898879,36.606912,NA,US,CA,Monterey,America/Los_Angeles,NA,NA,NA,NA,060539983,PM2.5,9983,Inactive,MON,Monterey Bay Unified APCD,R9,-8,NA,NA
9f561c41fcf08ea3,MIDAIR,-83.7369,36.6081,NA,US,KY,Bell,America/New_York,NA,NA,NA,NA,210130002,PM2.5,0002,Active,KY1,Kentucky DEP,R4,-5,33180," Middlesborough, KY "
5bbfab54e60b3ff4,Manzanita,-121.827594,36.613169,72.6,US,CA,Monterey,America/Los_Angeles,NA,NA,NA,NA,060539997,PM2.5,9997,Inactive,MON,Monterey Bay Unified APCD,R9,-8,41500," Salinas, CA "
70f098f12e7b30d6,MPWMD,-121.816645,36.620125,NA,US,CA,Monterey,America/Los_Angeles,NA,NA,NA,NA,060539982,PM2.5,9982,Inactive,MON,Monterey Bay Unified APCD,R9,-8,NA,NA
d774ca1b290de46e,Millington,-75.797203,39.305199,22.3,US,MD,Kent,America/New_York,NA,NA,NA,NA,240290002,PM2.5,0002,Active,MD1,Maryland Department of the Environment,R3,-5,NA,NA
fd5dec442c98baf5,Gridley,-121.66881,39.32756,NA,US,CA,Butte,America/Los_Angeles,NA,NA,NA,NA,060074001,PM2.5,4001,Active,CA8,California Air Resources Board,R9,-8,17020," Chico, CA "
588c428ae94798bc,East HS,-81.468956,41.063526,NA,US,OH,Summit,America/New_York,NA,NA,NA,NA,391530017,PM2.5,0017,Active,OH1,Ohio EPA-DAPC,R5,-5,10420," Akron, OH "
ddc4a20a2a1218dd,Fort Wayne-Beacon St,-85.101816,41.094965,232.1,US,IN,Allen,America/Indiana/Indianapolis,NA,NA,NA,NA,180030004,PM2.5,0004,Inactive,IN4,Indiana Dept. of Environmental Management,R5,-5,23060," Fort Wayne, IN "
aeb341714bbdf60f,Rockland Cty,-74.028191,41.182079,140,US,NY,Rockland,America/New_York,NA,NA,NA,NA,360870005,PM2.5,0005,Active,NY1,New York Dept. of Environmental Conservation,R2,-5,NA,NA
9ccbdd3235bbf817,Ogden #2,-111.975197,41.206402,1324.6,US,UT,Weber,America/Denver,NA,NA,NA,NA,490570002,PM2.5,0002,Inactive,UT1,Utah Department of Environmental Quality,R8,-7,36260," Ogden-Clearfield, UT "
982bdbc1c2aed3f5,Salladasburg,-77.230933,41.266192,NA,US,PA,Lycoming,America/New_York,NA,NA,NA,NA,840420810419,PM2.5,0810,Active,PA1,Pennsylvania Dept. of Environmental Protection,R3,-5,NA,NA
9b79e9729adcd257,Laramie SLAMS,-105.549137,41.308825,2196,US,WY,Albany,America/Denver,NA,NA,NA,NA,840560010012,PM2.5,0010,Active,WY1,Wyoming Department of Environmental Quality,R8,-7,29660," Laramie, WY "
005afb7b5c0556d5,SOUTHAMPTON,-62.5828,46.3864,15.3,CA,PE,NA,America/Halifax,NA,NA,NA,NA,000020401,PM2.5,0401,Active,CN1,Environment Canada,CA,-4,NA,NA
9f7aa65d9fbfa927,LINSCHL,-112.0353,46.6036,1200.8,US,MT,Lewis And Clark,America/Denver,NA,NA,NA,NA,300490018,PM2.5,0018,Inactive,MT1,Montana DEQ,R8,-7,25740," Helena, MT "
53adf0bdb9e18fd3,Missoula Boyd Park,-114.020549,46.842297,NA,US,MT,Missoula,America/Denver,NA,NA,NA,NA,300630024,PM2.5,0024,Active,MT1,Montana DEQ,R8,-7,NA,NA
e50b9945708fd7cc,Notre-Dame-du-Rosaire,-70.4528,46.8508,421.8,CA,QC,NA,America/Toronto,NA,NA,NA,NA,000053601,PM2.5,3601,Active,QC1,Canada-Quebec1,CA,-5,NA,NA
37073c5d746205e0,Detroit Lakes,-95.8467,46.8511,NA,US,MN,Becker,America/Chicago,NA,NA,NA,NA,270052013,PM2.5,2013,Active,MN1,Minnesota Pollution Control Agency,R5,-6,NA,NA
db6a0a42b780843b,Thibodaux,-90.7653,29.7639,1.5,US,LA,Lafourche,America/Chicago,NA,NA,NA,NA,220570004,PM2.5,0004,Active,LA1,Louisiana Department of Environmental Quality,R6,-6,26380," Houma-Bayou Cane-Thibodaux, LA "
9c4f29229c955d57,BV,-111.885498,40.897999,NA,US,UT,Davis,America/Denver,NA,NA,NA,NA,490110004,PM2.5,0004,Active,UT1,Utah Department of Environmental Quality,R8,-7,36260," Ogden-Clearfield, UT "
f272ad7bb96df881,Jackson Road,-82.3625,27.0892,NA,US,FL,Sarasota,America/New_York,NA,NA,NA,NA,121152002,PM2.5,2002,Active,FL1,Florida Dept. of Environmental Protection,R4,-5,42260," Sarasota-Bradenton-Venice, FL "
4ac23b256a938859,CARPENTER,-93.643303,41.6031,282.1,US,IA,Polk,America/Chicago,NA,NA,NA,NA,191530030,PM2.5,0030,Active,IA2,Polk Co. Air Quality Division,R7,-6,19780," Des Moines, IA "
c95e2f32a21f8097,Towanda,-76.512726,41.705226,340.1,US,PA,Bradford,America/New_York,NA,NA,NA,NA,420150011,PM2.5,0011,Active,PA1,Pennsylvania Dept. of Environmental Protection,R3,-5,NA,NA
a4bef09337476c69,SHELBY FARMS,-89.85022,35.151588,87.5,US,TN,Shelby,America/Chicago,NA,NA,NA,NA,471570075,PM2.5,0075,Active,TN3,Shelby County Health Department,R4,-6,32820," Memphis, TN-MS-AR "
3f1e6dd0ed3ca0b1,Walla Walla-12th St,-118.3514,46.0588,266.9,US,WA,Walla Walla,America/Los_Angeles,NA,NA,NA,NA,530710005,PM2.5,0005,Active,WA1,Washington Department of Ecology,R10,-8,47460," Walla Walla, WA "
2047e125fb02b98f,Taholah-Quinault Tribe,-124.291801,47.339802,13.7,US,WA,Grays Harbor,America/Los_Angeles,NA,NA,NA,NA,530270011,PM2.5,0011,Active,WA1,Washington Department of Ecology,R10,-8,10140," Aberdeen, WA "
6448fa2e943b0d09,Mobile-White Salmon,-121.488398,45.735931,NA,US,WA,Klickitat,America/Los_Angeles,NA,NA,NA,NA,840530390006,PM2.5,0390,Inactive,WA1,Washington Department of Ecology,R10,-8,NA,NA
ed4f92dbf2a98402,Pomeroy,-117.614764,46.474438,NA,US,WA,023,America/Los_Angeles,NA,NA,NA,NA,840MM0230001,PM2.5,0230,Inactive,WA1,Washington Department of Ecology,R10,-8,NA,NA
7ad167363161f3b5,Lakeview - Center & M,-120.353969,42.189215,1445.7,US,OR,Lake,America/Los_Angeles,NA,NA,NA,NA,410370001,PM2.5,0001,Active,OR1,Oregon Dept. of Environmental Quality,R10,-8,NA,NA
20d6b00818c2fadb,Roseburg - Garden Valley Blvd.,-123.36479,43.2266,NA,US,OR,Douglas,America/Los_Angeles,NA,NA,NA,NA,410190002,PM2.5,0002,Active,OR1,Oregon Dept. of Environmental Quality,R10,-8,40700," Roseburg, OR "
a9c5ff5ab0bada69,Otay Mesa - Donovan,-116.929486,32.579361,184.8,US,CA,San Diego,America/Los_Angeles,NA,NA,NA,NA,060731014,PM2.5,1014,Active,CA4,San Diego APCD,R9,-8,41740," San Diego-Carlsbad-San Marcos, CA "
5382df88cf5e91d3,Portland Lane Middle School,-122.60147,45.47142,76.9,US,OR,Multnomah,America/Los_Angeles,NA,NA,NA,NA,840410510032,PM2.5,0510,Active,OR1,Oregon Dept. of Environmental Quality,R10,-8,NA,NA
feda23a3233e4d95,Fresno-Foundry Park,-119.77743,36.71088,NA,US,CA,Fresno,America/Los_Angeles,NA,NA,NA,NA,060192016,PM2.5,2016,Active,CA6,San Joaquin Valley Unified APCD,R9,-8,23420," Fresno, CA "
ab7a3ab4ba1dc902,Naperville,-88.1522,41.7714,NA,US,IL,Du Page,America/Chicago,NA,NA,NA,NA,170434002,PM2.5,4002,Active,IL1,Illinois EPA,R5,-6,16980," Chicago-Naperville-Joliet, IL-IN-WI "
487bc42a5ab8f5b0,Athol Neph,-116.710897,47.949025,NA,US,ID,Kootenai,America/Los_Angeles,NA,NA,NA,NA,160551010,PM2.5,1010,Inactive,ID1,Idaho Department of Environmental Quality,R10,-8,NA,NA
575243c65b9e4719,Lewiston,-116.991402,46.408501,NA,US,ID,Nez Perce,America/Los_Angeles,NA,NA,NA,NA,160690012,PM2.5,0012,Active,ID1,Idaho Department of Environmental Quality,R10,-8,30300," Lewiston, ID-WA "
fe6d1145f37b00c3,Langley,-122.56694,49.09556,82,CA,BC,NA,America/Vancouver,NA,NA,NA,NA,000101301,PM2.5,1301,Active,BC2,Metro Vancouver,CA,-8,NA,NA
8ca91d2521b701d4,Downtown Sacramento - T Street,-121.49311,38.56844,NA,US,CA,Sacramento,America/Los_Angeles,NA,NA,NA,NA,060670010,PM2.5,0010,Active,CA8,California Air Resources Board,R9,-8,40900," Sacramento--Arden-Arcade--Roseville, CA "
d3d711cb14ea057b,Pedregal,-99.2041,19.3251,2327.5,MX,DF,NA,America/Mexico_City,NA,NA,NA,NA,800090101,PM2.5,0101,Active,MXC,Red de Monitoreo de la Calidad del Aire de la Ciudad de Mexico,MX,-6,NA,NA
02c665c394e93fe3,UC2,-96.747425,42.850975,NA,US,SD,Union,America/Chicago,NA,NA,NA,NA,461270002,PM2.5,0002,Inactive,SD1,South Dakota Department of Agriculture and Natural Resources,R8,-6,NA,NA
e27d31212fa99351,Pierre,-100.287269,44.373786,NA,US,SD,Hughes,America/Chicago,NA,NA,NA,NA,460650003,PM2.5,0003,Active,SD1,South Dakota Department of Agriculture and Natural Resources,R8,-6,NA,NA
efa672041013c5a0,Waco C1037,-97.0706,31.6531,140.3,US,TX,Mc Lennan,America/Chicago,NA,NA,NA,NA,483091037,PM2.5,1037,Active,TX1,Texas Commission on Environmental Quality,R6,-6,47380," Waco, TX "
06c49bc4a5551ec5,ST ANDREWS,-67.0786,45.0892,NA,CA,NB,NA,America/Moncton,NA,NA,NA,NA,000040901,PM2.5,0901,Active,CN1,Environment Canada,CA,-4,NA,NA
33a1cb93ed150d53,Auburn M St SE,-122.2144,47.2875,4,US,WA,King,America/Los_Angeles,NA,NA,NA,NA,840530330089,PM2.5,0330,Inactive,WA1,Washington Department of Ecology,R10,-8,42660," Seattle-Tacoma-Bellevue, WA "
089a067f92712ad1,Pullman-Dexter Ave,-117.1801,46.7245,771.3,US,WA,Whitman,America/Los_Angeles,NA,NA,NA,NA,530750003,PM2.5,0003,Active,WA1,Washington Department of Ecology,R10,-8,39420," Pullman, WA "
48ff86b963def74a,Neah Bay 2-Makah Tribe,-124.610046,48.366058,0.3,US,WA,Clallam,America/Los_Angeles,NA,NA,NA,NA,530090015,PM2.5,0015,Active,WA1,Washington Department of Ecology,R10,-8,38820," Port Angeles, WA "
cdee815a39e82336,Chiloquin Fire Dept,-121.862767,42.575374,NA,US,OR,Klamath,America/Los_Angeles,NA,NA,NA,NA,840410352222,PM2.5,0352,Inactive,OR1,Oregon Dept. of Environmental Quality,R10,-8,NA,NA
0a9604695e004216,Portland - Sauvie Island,-122.7721,45.768531,NA,US,OR,Columbia,America/Los_Angeles,NA,NA,NA,NA,410090004,PM2.5,0004,Active,OR1,Oregon Dept. of Environmental Quality,R10,-8,38900," Portland-Vancouver-Beaverton, OR-WA "
68a21258a8e9077a,Portland - SE Lafayette,-122.602877,45.496641,75,US,OR,Multnomah,America/Los_Angeles,NA,NA,NA,NA,410510080,PM2.5,0080,Active,OR1,Oregon Dept. of Environmental Quality,R10,-8,38900," Portland-Vancouver-Beaverton, OR-WA "
74627b16b8cad490,Jackson SLAMS,-110.797994,43.457764,1902.3,US,WY,Teton,America/Denver,NA,NA,NA,NA,840560391006,PM2.5,0391,Active,WY1,Wyoming Department of Environmental Quality,R8,-7,27220," Jackson, WY-ID "
331a36c5b90f5990,North Valley,-106.603897,35.187801,1524.1,US,NM,Bernalillo,America/Denver,NA,NA,NA,NA,350011013,PM2.5,1013,Active,NM2,Albuquerque Environmental Health Department,R6,-7,10740," Albuquerque, NM "
e8f98ea69c1a4ed8,Huron,-120.0991,36.1994,NA,US,CA,Fresno,America/Los_Angeles,NA,NA,NA,NA,060192008,PM2.5,2008,Active,CA6,San Joaquin Valley Unified APCD,R9,-8,NA,NA
13b7e67d9a5ced7c,Horn Point,-76.1408,38.5876,2.7,US,MD,Dorchester,America/New_York,NA,NA,NA,NA,240190004,PM2.5,0004,Active,MD1,Maryland Department of the Environment,R3,-5,NA,NA
8d24d28f77034d07,Rahway PM,-74.276176,40.603943,2.7,US,NJ,Union,America/New_York,NA,NA,NA,NA,340392003,PM2.5,2003,Active,NJ1,New Jersey Dept. of Environmental Protection,R2,-5,35620," New York-Northern New Jersey-Long Island, NY-NJ-PA "
7e2d26803c47b261,Elizabeth Trailer,-74.208366,40.641441,4.9,US,NJ,Union,America/New_York,NA,NA,NA,NA,340390004,PM2.5,0004,Active,NJ1,New Jersey Dept. of Environmental Protection,R2,-5,35620," New York-Northern New Jersey-Long Island, NY-NJ-PA "
3cf38c450135e594,Weaverville,-122.941109,40.734722,600.2,US,CA,Trinity,America/Los_Angeles,NA,NA,NA,NA,061050002,PM2.5,0002,Active,NCA,North Coast Unified Air Quality Management District,R9,-8,NA,NA
9f9385f1c31f5e3d,Eisenhower Park,-73.5869,40.7447,NA,US,NY,Nassau,America/New_York,NA,NA,NA,NA,360590005,PM2.5,0005,Active,NY1,New York Dept. of Environmental Conservation,R2,-5,35620," New York-Northern New Jersey-Long Island, NY-NJ-PA "
bc35ed0d07fd9ca2,Salmon PM2.5,-113.890285,45.181907,1200.2,US,ID,Lemhi,America/Boise,NA,NA,NA,NA,160590004,PM2.5,0004,Active,ID1,Idaho Department of Environmental Quality,R10,-7,NA,NA
692afd67f174e3e9,Mt Fanny,-117.733582,45.309556,2175.3,US,OR,Union,America/Los_Angeles,NA,NA,NA,NA,410610121,PM2.5,0121,Inactive,OR1,Oregon Dept. of Environmental Quality,R10,-8,NA,NA
3f625185eaa88e44,Sainte-Anne-de-Bellevue,-73.928944,45.426509,NA,CA,QC,NA,America/Toronto,NA,NA,NA,NA,CC0050126,PM2.5,0126,Active,QC2,Canada-Quebec2,CA,-5,NA,NA
bad2fb893d28cdfa,Broadus,-105.37028,45.440295,NA,US,MT,Powder River,America/Denver,NA,NA,NA,NA,300750001,PM2.5,0001,Active,MT1,Montana DEQ,R8,-7,NA,NA
ed5bd93f36e83c28,Tulalip-Reuben Shelton,-122.275,48.069,11.9,US,WA,Snohomish,America/Los_Angeles,NA,NA,NA,NA,530610011,PM2.5,0011,Inactive,WA1,Washington Department of Ecology,R10,-8,NA,NA
df6c508a5d8befb0,Port Angeles-E 5th St,-123.436434,48.115,75,US,WA,Clallam,America/Los_Angeles,NA,NA,NA,NA,530090017,PM2.5,0017,Active,WA1,Washington Department of Ecology,R10,-8,NA,NA
8ac8ff0b028d1e11,Colville-E 1st St,-117.903222,48.54469,488.3,US,WA,Stevens,America/Los_Angeles,NA,NA,NA,NA,530650005,PM2.5,0005,Active,WA1,Washington Department of Ecology,R10,-8,NA,NA
d12be214361c539d,Lostwood NWR,-102.402199,48.641899,696.3,US,ND,Burke,America/Chicago,NA,NA,NA,NA,380130004,PM2.5,0004,Active,ND1,North Dakota Department of Environmental Quality,R8,-6,NA,NA
9d77971a46a76bf1,Juarez,-100.09556,25.64611,118,MX,NL,NA,America/Monterrey,NA,NA,NA,NA,80039SE02,PM2.5,SE02,Active,SMA,Sistema Integral de Monitoreo Ambiental,MX,-6,NA,NA
10c34f29096856e3,Brownsville C80,-97.4936,25.8925,6.1,US,TM,Cameron,America/Chicago,NA,NA,NA,NA,480610006,PM2.5,0006,Active,TX1,Texas Commission on Environmental Quality,R6,-6,15180," Brownsville-Harlingen, TX "
f292baacd4e95703,DAVIE,-80.2408,26.085,NA,US,FL,Broward,America/New_York,NA,NA,NA,NA,120111002,PM2.5,1002,Inactive,FL2,Broward County Natural Resources Division,R4,-5,33100," Miami-Fort Lauderdale-Miami Beach, FL "
73c648b20e722712,Laredo C313,-99.5333,27.5994,390.4,US,TM,Webb,America/Chicago,NA,NA,NA,NA,484790313,PM2.5,0313,Active,TX1,Texas Commission on Environmental Quality,R6,-6,29700," Laredo, TX "
85515654c9fdafab,I25 Denver,-105.015313,39.732144,1588.7,US,CO,Denver,America/Denver,NA,NA,NA,NA,080310027,PM2.5,0027,Active,CO1,Colorado Department of Public Health and Environment,R8,-7,19740," Denver-Aurora, CO "
930a2f92f05ba913,Tunkhannock,-75.95774,41.605244,NA,US,PA,Wyoming,America/New_York,NA,NA,NA,NA,840421310010,PM2.5,1310,Active,PA1,Pennsylvania Dept. of Environmental Protection,R3,-5,NA,NA
0e7c98847ad0f8e0,"Iowa City, Hoover School",-91.503471,41.658195,NA,US,IA,Johnson,America/Chicago,NA,NA,NA,NA,191032001,PM2.5,2001,Active,IA1,Iowa DNR,R7,-6,26980," Iowa City, IA "
c84d8008f96e8f3f,Horicon Wildlife Area,-88.621109,43.46611,286.4,US,WI,Dodge,America/Chicago,NA,NA,NA,NA,550270001,PM2.5,0001,Active,WI1,Wisconsin Dept. of Natural Resources,R5,-6,NA,NA
5e1df942c1566209,Thermopolis Mobile BAM,-108.218095,43.627929,1321,US,WY,Hot Springs,America/Denver,NA,NA,NA,NA,840560170002,PM2.5,0170,Inactive,WY1,Wyoming Department of Environmental Quality,R8,-7,NA,NA
e5bed837795d0e21,Lebanon,-72.309499,43.629605,178.1,US,NH,Grafton,America/New_York,NA,NA,NA,NA,330090010,PM2.5,0010,Active,NH1,New Hampshire Dept. of Environmental Services,R1,-5,30100," Lebanon, NH-VT "
2e0ff7acb515315b,Boise Mtn View School,-116.270302,43.636101,NA,US,ID,Ada,America/Boise,NA,NA,NA,NA,160010011,PM2.5,0011,Inactive,ID1,Idaho Department of Environmental Quality,R10,-7,14260," Boise City-Nampa, ID "
9dba0629b89dc0d0,LACROSSE DOT,-91.225,43.7781,209.8,US,WI,La Crosse,America/Chicago,NA,NA,NA,NA,550630012,PM2.5,0012,Active,WI1,Wisconsin Dept. of Natural Resources,R5,-6,29100," La Crosse, WI-MN "
5b44d83a0810c7db,Moses Lake-Balsam St,-119.2726,47.1303,99.1,US,WA,Grant,America/Los_Angeles,NA,NA,NA,NA,530251002,PM2.5,1002,Active,WA1,Washington Department of Ecology,R10,-8,34180," Moses Lake, WA "
22d9486f3744dc0e,Hannover,-101.4281,47.1858,697.2,US,ND,Oliver,America/North_Dakota/Center,NA,NA,NA,NA,380650002,PM2.5,0002,Active,ND1,North Dakota Department of Environmental Quality,R8,-6,NA,NA
5e19b90e89cb7726,Newport_Mobile,-120.958142,47.197416,NA,US,WA,051,America/Los_Angeles,NA,NA,NA,NA,840MM0510181,PM2.5,0510,Inactive,WA1,Washington Department of Ecology,R10,-8,NA,NA
46a1c2aa2db4f5cd,Dunn Center,-102.526398,47.320301,683.2,US,ND,Dunn,America/Denver,NA,NA,NA,NA,380250003,PM2.5,0003,Inactive,ND1,North Dakota Department of Environmental Quality,R8,-7,NA,NA
6ab6febe39d81f3d,Rainy Lake,-113.589791,47.347397,NA,US,MT,Mt1,America/Denver,NA,NA,NA,NA,MMMT10002,PM2.5,0002,Inactive,MT1,Montana DEQ,R8,-7,NA,NA
1bc7811e85137fa5,Palmer,-149.104,61.599,29.9,US,AK,Anchorage,America/Anchorage,NA,NA,NA,NA,020200012,PM2.5,0012,Inactive,AK1,State of Alaska DEC,USEPA,-9,NA,NA
49dd2e2b9ae4836a,KALAMAZOO,-85.5419,42.2781,390.4,US,MI,Kalamazoo,America/Detroit,NA,NA,NA,NA,260770008,PM2.5,0008,Active,MI1,"Michigan Department of Environment, Great Lakes, and Energy",R5,-5,28020," Kalamazoo-Portage, MI "
633f8f5e9334b232,Marshall,-95.835,44.4572,NA,US,MN,Lyon,America/Chicago,NA,NA,NA,NA,270834210,PM2.5,4210,Active,MN1,Minnesota Pollution Control Agency,R5,-6,32140," Marshall, MN "
9697b73127f527cb,SEAFORD,-75.6131,38.6444,NA,US,DE,Sussex,America/New_York,NA,NA,NA,NA,100051002,PM2.5,1002,Active,DE1,Delaware Dept. of Natural Resources and Environment,R3,-5,42580," Seaford, DE "
0001770edc620bb8,Charette,-72.8928,46.4425,116.8,CA,QC,NA,America/Toronto,NA,NA,NA,NA,000052001,PM2.5,2001,Active,QC1,Canada-Quebec1,CA,-5,NA,NA
ed22eeb1a1a49915,Big Sur Ranger Station,-121.781317,36.247808,NA,US,CA,Monterey,America/Los_Angeles,NA,NA,NA,NA,840060539976,PM2.5,0539,Inactive,MON,Monterey Bay Unified APCD,R9,-8,41500," Salinas, CA "
7fb2283a0ac8f0bc,Division Street,-73.995,40.7142,NA,US,NY,New York,America/New_York,NA,NA,NA,NA,360610134,PM2.5,0134,Active,NY1,New York Dept. of Environmental Conservation,R2,-5,35620," New York-Northern New Jersey-Long Island, NY-NJ-PA "
3700e9430df82e60,AIR LAB,-83.9306,35.9803,NA,US,TN,Knox,America/New_York,NA,NA,NA,NA,470931013,PM2.5,1013,Active,TN4,Knox County Dept. of Air Quality Management ,R4,-5,28940," Knoxville, TN "
499f712c1dd83208,Hammond-167th St,-87.495044,41.594427,NA,US,IN,Lake,America/Chicago,NA,NA,NA,NA,180890036,PM2.5,0036,Active,IN4,Indiana Dept. of Environmental Management,R5,-6,16980," Chicago-Naperville-Joliet, IL-IN-WI "
dca6f974d1b46a68,Laconia,-71.496335,43.566122,220.8,US,NH,Belknap,America/New_York,NA,NA,NA,NA,330012004,PM2.5,2004,Active,NH1,New Hampshire Dept. of Environmental Services,R1,-5,29060," Laconia, NH "
9504ef7273a27752,Tacoma-L St,-122.4517,47.1864,104,US,WA,Pierce,America/Los_Angeles,NA,NA,NA,NA,530530029,PM2.5,0029,Active,WA1,Washington Department of Ecology,R10,-8,42660," Seattle-Tacoma-Bellevue, WA "
71df28bd7183f1f2,Tacoma-S 36th St,-122.46256,47.22634,108,US,WA,Pierce,America/Los_Angeles,NA,NA,NA,NA,530530024,PM2.5,0024,Active,WA1,Washington Department of Ecology,R10,-8,42660," Seattle-Tacoma-Bellevue, WA "
07f1b4e8df12c89d,Auburn 29th St,-122.2233,47.2814,31.7,US,WA,King,America/Los_Angeles,NA,NA,NA,NA,840530330047,PM2.5,0330,Active,WA1,Washington Department of Ecology,R10,-8,NA,NA
33a1cb93ed150d53,Auburn M St SE,-122.2144,47.2875,NA,US,WA,King,America/Los_Angeles,NA,NA,NA,NA,840530339990,PM2.5,0339,Inactive,WA1,Washington Department of Ecology,R10,-8,42660," Seattle-Tacoma-Bellevue, WA "
b84f44e1cbf85fac,Madawaska PSB,-68.3211,47.3553,NA,US,ME,Aroostook,America/New_York,NA,NA,NA,NA,230030014,PM2.5,0014,Active,ME1,Maine Dept. of Environmental Protection,R1,-5,NA,NA
52edeaf7dfe9302c,P2,-110.769997,39.595798,NA,US,UT,Carbon,America/Denver,NA,NA,NA,NA,490071003,PM2.5,1003,Active,UT1,Utah Department of Environmental Quality,R8,-7,NA,NA
03f1137cb7eb0b41,KENANSVL,-77.9608,34.9547,33.9,US,NC,Duplin,America/New_York,NA,NA,NA,NA,370610002,PM2.5,0002,Inactive,NC1,North Carolina DEQ - Division of Air Quality,R4,-5,NA,NA
480eaed7eb9cf465,Scranton,-75.6231,41.4428,NA,US,PA,Lackawanna,America/New_York,NA,NA,NA,NA,420692006,PM2.5,2006,Active,PA1,Pennsylvania Dept. of Environmental Protection,R3,-5,42540," Scranton--Wilkes-Barre, PA "
950c48de00764e18,Bellingham-Yew St,-122.440201,48.762699,23.8,US,WA,Whatcom,America/Los_Angeles,NA,NA,NA,NA,530730015,PM2.5,0015,Inactive,WA1,Washington Department of Ecology,R10,-8,13380," Bellingham, WA "
1374a646786e98be,na,-123.2118,45.2094,44.8,US,OR,Yamhill,America/Los_Angeles,NA,NA,NA,NA,410711001,PM2.5,1001,Inactive,OR1,Oregon Dept. of Environmental Quality,R10,-8,38900," Portland-Vancouver-Beaverton, OR-WA "
88f75107cbc4d5f4,The Dalles - Cherry Heights,-121.203387,45.602419,86.3,US,OR,Wasco,America/Los_Angeles,NA,NA,NA,NA,410650007,PM2.5,0007,Active,OR1,Oregon Dept. of Environmental Quality,R10,-8,17180," City of The Dalles, OR "
4ffd29b87ac380f0,Grass Valley,-121.055603,39.234402,NA,US,CA,Nevada,America/Los_Angeles,NA,NA,NA,NA,060570005,PM2.5,0005,Active,NOS,Northern Sierra AQMD,R9,-8,46020," Truckee-Grass Valley, CA "
4eab18996b473c2e,East Hartford,-72.6297,41.7847,14.9,US,CT,Hartford,America/New_York,NA,NA,NA,NA,090031003,PM2.5,1003,Active,CT1,Connecticut Dept. of Energy and Environmental Protection,R1,-5,25540," Hartford-West Hartford-East Hartford, CT "
bf500cd4c2bd1605,St. Michael,-93.6686,45.2108,NA,US,MN,Wright,America/Chicago,NA,NA,NA,NA,271713201,PM2.5,3201,Active,MN1,Minnesota Pollution Control Agency,R5,-6,33460," Minneapolis-St. Paul-Bloomington, MN-WI "
b2faa0211d6772fe,Bridgeport,-73.195297,41.171398,6.7,US,CT,Fairfield,America/New_York,NA,NA,NA,NA,090010010,PM2.5,0010,Active,CT1,Connecticut Dept. of Energy and Environmental Protection,R1,-5,14860," Bridgeport-Stamford-Norwalk, CT "
de1db029cc0257f2,New Haven - Criscuolo Park,-72.902685,41.301288,NA,US,CT,New Haven,America/New_York,NA,NA,NA,NA,090090027,PM2.5,0027,Active,CT1,Connecticut Dept. of Energy and Environmental Protection,R1,-5,35300," New Haven-Milford, CT "
f171e011b4fdcb39,DESPLNS,-87.8631,42.0603,NA,US,IL,Cook,America/Chicago,NA,NA,NA,NA,170314007,PM2.5,4007,Active,IL1,Illinois EPA,R5,-6,16980," Chicago-Naperville-Joliet, IL-IN-WI "
c0568b52ab2910ef,Bishop Paiute Tribe-CA,-118.4167,37.3667,1288.9,US,CA,Inyo,America/Los_Angeles,NA,NA,NA,NA,060271023,PM2.5,1023,Active,BPT,Bishop Paiute Tribe,R9,-8,13860," Bishop, CA "
e8421639f0ffc8cd,Fay Park,-80.8003,28.4692,6.7,US,FL,Brevard,America/New_York,NA,NA,NA,NA,120090011,PM2.5,0011,Inactive,FL1,Florida Dept. of Environmental Protection,R4,-5,37340," Palm Bay-Melbourne-Titusville, FL "
9c09126254a89aaa,State College,-77.8769,40.8114,NA,US,PA,Centre,America/New_York,NA,NA,NA,NA,420270100,PM2.5,0100,Active,PA1,Pennsylvania Dept. of Environmental Protection,R3,-5,44300," State College, PA "
a05a53925830b6e4,Fond du Lac,-92.511722,46.713694,NA,US,MN,Carlton,America/Chicago,NA,NA,NA,NA,270177417,PM2.5,7417,Active,MN1,Minnesota Pollution Control Agency,R5,-6,NA,NA
bcc8889c7d3d4048,Manchester,-71.462799,42.9953,84.2,US,NH,Hillsborough,America/New_York,NA,NA,NA,NA,330110020,PM2.5,0020,Inactive,NH1,New Hampshire Dept. of Environmental Services,R1,-5,31700," Manchester-Nashua, NH "
4ffcf698186f0f55,GPORT YC,-89.0497,30.39,NA,US,MS,Harrison,America/Chicago,NA,NA,NA,NA,280470008,PM2.5,0008,Active,MS1,Mississippi DEQ,R4,-6,25060," Gulfport-Biloxi, MS "
778b8fff6f62241c,PRINCE ALBERT,-105.75203,53.201694,NA,CA,SK,NA,America/Regina,NA,NA,NA,NA,000080402,PM2.5,0402,Active,SK1,Saskatchewan Environment,CA,-6,NA,NA
c702ff5391cbde3b,Ben Lomond,-122.076311,37.084458,114.4,US,CA,Santa Cruz,America/Los_Angeles,NA,NA,NA,NA,060879994,PM2.5,9994,Inactive,MON,Monterey Bay Unified APCD,R9,-8,42100," Santa Cruz-Watsonville, CA "
e2e3a0919cc8c201,Trois-Rivières - École MEES,-72.546187,46.357175,NA,CA,QC,NA,America/Toronto,NA,NA,NA,NA,000050803,PM2.5,0803,Active,QC1,Canada-Quebec1,CA,-5,NA,NA
5d96eead99c3ad1d,WAUKESHA - CLEVELAND AVE,-88.215,43.0203,NA,US,WI,Waukesha,America/Chicago,NA,NA,NA,NA,551330027,PM2.5,0027,Active,WI1,Wisconsin Dept. of Natural Resources,R5,-6,33340," Milwaukee-Waukesha-West Allis, WI "
b6683f8a97825e65,Mahon Park,-123.083611,49.323891,NA,CA,BC,NA,America/Vancouver,NA,NA,NA,NA,000100132,PM2.5,0132,Active,BC2,Metro Vancouver,CA,-8,NA,NA
41c723e5357f0a8c,Xalostoc,-99.0824,19.5259,2161.2,MX,MX,NA,America/Mexico_City,NA,NA,NA,NA,800150334,PM2.5,0334,Active,MXC,Red de Monitoreo de la Calidad del Aire de la Ciudad de Mexico,MX,-6,NA,NA
078f37046caa6f0b,Texarkana New Boston,-94.075671,33.435489,NA,US,TX,Bowie,America/Chicago,NA,NA,NA,NA,480371031,PM2.5,1031,Active,TX1,Texas Commission on Environmental Quality,R6,-6,45500," Texarkana, TX-Texarkana, AR "
334d37dcb03a9e45,Kelowna KLO Road,-119.467461,49.862119,NA,CA,BC,NA,America/Vancouver,NA,NA,NA,NA,124000100703,PM2.5,0100,Active,BC1,British Columbia Ministry of Environment,CA,-8,NA,NA
71135fe4be463edb,Theodore Roosevelt NP - Painted Canyon VC,-103.514397,46.949699,NA,US,ND,Billings,America/Denver,NA,NA,NA,NA,380070002,PM2.5,0002,Active,ND1,North Dakota Department of Environmental Quality,R8,-7,19860," Dickinson, ND "
c77bc1b5bd3e2dd7,Cornwall,-74.7394,45.0294,NA,CA,ON,NA,America/Toronto,NA,NA,NA,NA,000061201,PM2.5,1201,Active,ON1,Ontario Ministry of the Environment,CA,-5,NA,NA
91daf49715f221d3,Toronto Downtown,-79.38908,43.64543,85.1,CA,ON,NA,America/Toronto,NA,NA,NA,NA,124000060445,PM2.5,0060,Active,ON1,Ontario Ministry of the Environment,CA,-5,NA,NA
930dc39fcbef74ae,Gary-IITRI,-87.3047,41.6067,183,US,IN,Lake,America/Chicago,NA,NA,NA,NA,180890022,PM2.5,0022,Active,IN4,Indiana Dept. of Environmental Management,R5,-6,16980," Chicago-Naperville-Joliet, IL-IN-WI "
71b31600caf2c70d,Algonquin Parkway,-85.82675,38.23158,NA,US,KY,Jefferson,America/Kentucky/Louisville,NA,NA,NA,NA,211111041,PM2.5,1041,Active,KY2,Louisville Metro Air Pollution Control District ,R4,-5,31140," Louisville, KY-IN "
4442e3d52ffabbf2,French Settlement,-90.8114,30.315,NA,US,LA,Livingston,America/Chicago,NA,NA,NA,NA,220630002,PM2.5,0002,Active,LA1,Louisiana Department of Environmental Quality,R6,-6,12940," Baton Rouge, LA "
73f64b132f8eb223,Minecrek,-94.7319,38.1358,NA,US,KS,Linn,America/Chicago,NA,NA,NA,NA,201070002,PM2.5,0002,Inactive,KS1,Kansas Dept. of Health and Environment,R7,-6,28140," Kansas City, MO-KS "
313a13a7530f754c,Harriman,-84.5439,35.9386,NA,US,TN,Roane,America/New_York,NA,NA,NA,NA,471450004,PM2.5,0004,Active,TN1,Tennessee Air Pollution Control Div.,R4,-5,25340," Harriman, TN "
f74c8a9a2f935c96,Santa Teresa,-106.6828,31.7878,1281,US,NM,Dona Ana,America/Denver,NA,NA,NA,NA,350130022,PM2.5,0022,Active,NM1,New Mexico Air Quality Bureau,R6,-7,29740," Las Cruces, NM "
e8807bf768587eb7,La Patrie - Ditton,-71.2514,45.3733,477.9,CA,QC,NA,America/Toronto,NA,NA,NA,NA,000054901,PM2.5,4901,Active,QC1,Canada-Quebec1,CA,-5,NA,NA
92cdf0bec92ed2f3,Burlington,-73.210297,44.476101,62.8,US,VT,Chittenden,America/New_York,NA,NA,NA,NA,500070014,PM2.5,0014,Active,VT1,Vermont Air Quality & Climate Division,R1,-5,15540," Burlington-South Burlington, VT "
ae8b269e9731bfeb,Fayette C601,-96.745875,29.962474,128.1,US,TX,Fayette,America/Chicago,NA,NA,NA,NA,481490001,PM2.5,0001,Active,TX1,Texas Commission on Environmental Quality,R6,-6,NA,NA
2b91f9ecd1ec7800,Nampa Fire Station,-116.562676,43.58031,NA,US,ID,Canyon,America/Boise,NA,NA,NA,NA,160270002,PM2.5,0002,Active,ID1,Idaho Department of Environmental Quality,R10,-7,14260," Boise City-Nampa, ID "
84c31e7d7b581b61,Rossiter Pump House,-112.0131,46.6588,1139.8,US,MT,Lewis And Clark,America/Denver,NA,NA,NA,NA,300490026,PM2.5,0026,Active,MT1,Montana DEQ,R8,-7,25740," Helena, MT "
0de266f3f4926dd1,Virgin Valley,-114.050347,36.815897,NA,US,NV,Clark,America/Phoenix,NA,NA,NA,NA,320030024,PM2.5,0024,Active,NV1,Clark County Department of Environment and Sustainability ,R9,-8,NA,NA
6452b004b5587c17,Compton,-118.205,33.9014,27.5,US,CA,Los Angeles,America/Los_Angeles,NA,NA,NA,NA,060371302,PM2.5,1302,Active,CA3,South Coast AQMD,R9,-8,31100," Los Angeles-Long Beach-Santa Ana, CA "
e7a5a21e9df7fc59,Amarillo Texas A&M C320,-101.9083,35.2006,1122.7,US,TX,Potter,America/Chicago,NA,NA,NA,NA,483750320,PM2.5,0320,Active,TX1,Texas Commission on Environmental Quality,R6,-6,11100," Amarillo, TX "
34cf3a00968ab33a,Kelowna College,-119.475,49.8611,300.1,CA,BC,NA,America/Vancouver,NA,NA,NA,NA,000100701,PM2.5,0701,Inactive,BC1,British Columbia Ministry of Environment,CA,-8,NA,NA
0f802e094de81d04,Kingston,-76.31,44.13,25,CA,NY,NA,America/New_York,NA,NA,NA,NA,000060303,PM2.5,0303,Inactive,ON1,Ontario Ministry of the Environment,CA,-5,48060," Watertown-Fort Drum, NY "
011ba1bceca8a6b8,SAINT JOHN WEST,-66.0803,45.2536,54.9,CA,NB,NA,America/Moncton,NA,NA,NA,NA,000040207,PM2.5,0207,Active,CN1,Environment Canada,CA,-4,NA,NA
1bc87af647e21b6f,Reno3,-119.807744,39.52507,NA,US,NV,Washoe,America/Los_Angeles,NA,NA,NA,NA,320310016,PM2.5,0016,Inactive,NV2,Washoe County Health District Air Quality Management Division,R9,-8,39900," Reno-Sparks, NV "
477b7dad2d952dad,Hawthorne,-111.871696,40.733501,1314.6,US,UT,Salt Lake,America/Denver,NA,NA,NA,NA,490353006,PM2.5,3006,Active,UT1,Utah Department of Environmental Quality,R8,-7,41620," Salt Lake City, UT "
c45ca81e966d5d0e,MON,-75.207205,39.988842,NA,US,PA,Philadelphia,America/New_York,NA,NA,NA,NA,421010076,PM2.5,0076,Active,PA2,Philadelphia Air Management Services,R3,-5,NA,NA
b4b0b8a84532edba,Fort Lee,-73.9683,40.854401,NA,US,NJ,Bergen,America/New_York,NA,NA,NA,NA,340030004,PM2.5,0004,Inactive,NJ1,New Jersey Dept. of Environmental Protection,R2,-5,35620," New York-Northern New Jersey-Long Island, NY-NJ-PA "
963dfff8f48bdad8,Temiscaming,-79.0997,46.72139,80.5,CA,QC,NA,America/Toronto,NA,NA,NA,NA,000052701,PM2.5,2701,Active,QC1,Canada-Quebec1,CA,-5,NA,NA
6274fe24b590b1f3,Ohio Drive,-77.033129,38.876048,NA,US,VA,Washington,America/New_York,NA,NA,NA,NA,110010042,PM2.5,0042,Inactive,DC1,District of Columbia - Department of Energy and Environment,R3,-5,47900," Washington-Arlington-Alexandria, DC-VA-MD-WV "
bdd88108070dc7d9,WAIKOLOA,-155.798067,19.977467,183.9,US,HI,Hawaii,Pacific/Honolulu,NA,NA,NA,NA,150012021,PM2.5,2021,Active,HI1,Hawaii State Dept. of Health,R9,-10,NA,NA
9d721db598266581,Children's Park Site,-110.9822,32.2953,NA,US,AZ,Pima,America/Phoenix,NA,NA,NA,NA,040191028,PM2.5,1028,Active,AZ3,Pima County Department of Environmental Quality,R9,-7,46060," Tucson, AZ "
b450514f9261c130,Lone Pine Paiute/Shoshone Tribe-CA,-118.04,36.5975,1288.9,US,CA,Inyo,America/Los_Angeles,NA,NA,NA,NA,060271018,PM2.5,1018,Active,TRX,Quality Review and Exchange System for Tribes (QREST),R8,-8,13860," Bishop, CA "
23932caa3338b243,Paradise Theater,-121.59135,39.77919,NA,US,CA,Butte,America/Los_Angeles,NA,NA,NA,NA,060072002,PM2.5,2002,Active,CA8,California Air Resources Board,R9,-8,NA,NA
f3a0c5aa956e0935,Elk Falls Dogwood,-125.2484,50.018425,60.1,CA,BC,NA,America/Vancouver,NA,NA,NA,NA,000102801,PM2.5,2801,Active,BC1,British Columbia Ministry of Environment,CA,-8,NA,NA
764d260e8665ba0d,Trail Aquatic Centre,-117.6972,49.0956,486.2,CA,BC,NA,America/Vancouver,NA,NA,NA,NA,000100060,PM2.5,0060,Inactive,BC1,British Columbia Ministry of Environment,CA,-8,NA,NA
b98f1a8818dca402,North Bay,-79.4453,46.3175,NA,CA,ON,NA,America/Toronto,NA,NA,NA,NA,000062001,PM2.5,2001,Active,ON1,Ontario Ministry of the Environment,CA,-5,NA,NA
e918c5f6490b092a,Chatham,-82.2086,42.4033,14.9,CA,ON,NA,America/Nipigon,NA,NA,NA,NA,000065801,PM2.5,5801,Active,ON1,Ontario Ministry of the Environment,CA,-5,NA,NA
d67ead5d8797dde3,Indpls - I-70 E,-86.13088,39.787933,NA,US,IN,Marion,America/Indiana/Indianapolis,NA,NA,NA,NA,180970087,PM2.5,0087,Active,IN4,Indiana Dept. of Environmental Management,R5,-5,26900," Indianapolis, IN "
365882eb5497ada3,Bercut Dr,-121.503728,38.593328,NA,US,CA,Sacramento,America/Los_Angeles,NA,NA,NA,NA,060670015,PM2.5,0015,Active,CA1,Sacramento Metro. AQMD,R9,-8,40900," Sacramento--Arden-Arcade--Roseville, CA "
f3067e11de31fff4,HATTIEAVEN,-80.2267,36.1106,281.8,US,NC,Forsyth,America/New_York,NA,NA,NA,NA,370670022,PM2.5,0022,Active,NC3,Forsyth County Office of Environmental Assistance and Protection,R4,-5,49180," Winston-Salem, NC "
541ff3e07383d7c6,Lebanon,-76.383446,40.33733,158.3,US,PA,Lebanon,America/New_York,NA,NA,NA,NA,420750100,PM2.5,0100,Inactive,PA1,Pennsylvania Dept. of Environmental Protection,R3,-5,30140," Lebanon, PA "
0c2fb2d0752bbb45,HAMPTON,-76.38702,37.10373,4,US,VA,Hampton,America/New_York,NA,NA,NA,NA,516500008,PM2.5,0008,Active,VA1,Virginia Dept. of Environmental Quality,R3,-5,47260," Virginia Beach-Norfolk-Newport News, VA-NC "
dd658ca0b859a031,Puyallup-Puyallup Tribe,-122.3433,47.204399,9.8,US,WA,Pierce,America/Los_Angeles,NA,NA,NA,NA,530530022,PM2.5,0022,Inactive,WA1,Washington Department of Ecology,R10,-8,42660," Seattle-Tacoma-Bellevue, WA "
ad17b44c91f1a226,Augusta,-82.0219,33.4333,46.1,US,GA,Richmond,America/New_York,NA,NA,NA,NA,132450091,PM2.5,0091,Active,GA1,Georgia Department of Natural Resources,R4,-5,12260," Augusta-Richmond County, GA-SC "
2b123c59512d07f3,Fort Walton,-86.6667,30.4266,91.5,US,FL,Oaq - Epa?,America/Chicago,NA,NA,NA,NA,MMOAQ1005,PM2.5,1005,Inactive,OAQ,EPA Office of Air Quality Planning and Standards,USEPA,-6,23020," Fort Walton Beach-Crestview-Destin, FL "
4d29c014fcf2f039,Kemmerer Mobile,-110.537888,41.783083,2119.4,US,WY,Lincoln,America/Denver,NA,NA,NA,NA,840560230004,PM2.5,0230,Active,WY1,Wyoming Department of Environmental Quality,R8,-7,NA,NA
2e59487ab1b01107,Von Ormy Highway 16,-98.589126,29.162942,207.1,US,TX,Atascosa,America/Chicago,NA,NA,NA,NA,840480131090,PM2.5,0131,Active,TX1,Texas Commission on Environmental Quality,R6,-6,41700," San Antonio, TX "
9d50667bade43fe9,Calaveras Lake C59,-98.311699,29.275299,140.3,US,TX,Bexar,America/Chicago,NA,NA,NA,NA,480290059,PM2.5,0059,Active,TX1,Texas Commission on Environmental Quality,R6,-6,41700," San Antonio, TX "
83a3475f308031cf,Seabrook Friendship Park C45,-95.0156,29.5831,3.1,US,TX,Harris,America/Chicago,NA,NA,NA,NA,482011050,PM2.5,1050,Active,TX1,Texas Commission on Environmental Quality,R6,-6,26420," Houston-Sugar Land-Baytown, TX "
70654cc484a57f10,Clear Lake High School C572,-95.105,29.5833,6.1,US,TX,Harris,America/Chicago,NA,NA,NA,NA,482010572,PM2.5,0572,Inactive,TX1,Texas Commission on Environmental Quality,R6,-6,26420," Houston-Sugar Land-Baytown, TX "
94760bd567c8c2b3,El Dorado,-92.6689,33.215,NA,US,AR,Union,America/Chicago,NA,NA,NA,NA,051390006,PM2.5,0006,Active,AR1,Arkansas Department of Environmental Quality,R6,-6,20980," El Dorado, AR "
5371ca54a9476a17,Eastwood,-112.002642,33.41046,NA,US,AZ,Maricopa,America/Phoenix,NA,NA,NA,NA,040134021,PM2.5,4021,Active,AZ2,Maricopa County Air Quality Department,R9,-7,38060," Phoenix-Mesa-Scottsdale, AZ "
16e6d8965887fb86,Triple Oak - Near Road,-78.8197,35.8652,97,US,NC,Wake,America/New_York,NA,NA,NA,NA,371830021,PM2.5,0021,Active,NC1,North Carolina DEQ - Division of Air Quality,R4,-5,39580," Raleigh-Cary, NC "
6e2f44cc8a8542cd,LEGGETT,-77.5843,35.988278,18,US,NC,Edgecombe,America/New_York,NA,NA,NA,NA,370650099,PM2.5,0099,Active,NC1,North Carolina DEQ - Division of Air Quality,R4,-5,40580," Rocky Mount, NC "
b438a5baebdbae7b,Elk Grove,-121.420838,38.302591,6.4,US,CA,Sacramento,America/Los_Angeles,NA,NA,NA,NA,060670011,PM2.5,0011,Active,CA1,Sacramento Metro. AQMD,R9,-8,40900," Sacramento--Arden-Arcade--Roseville, CA "
badd95aafd66438f,Crystal River Preserve,-82.643094,28.958372,NA,US,FL,Citrus,America/New_York,NA,NA,NA,NA,120170006,PM2.5,0006,Active,FL1,Florida Dept. of Environmental Protection,R4,-5,26140," Homosassa Springs, FL "
535c42cd7c732a7e,Paynes Prairie Farm,-82.266066,29.56615,NA,US,FL,Alachua,America/New_York,NA,NA,NA,NA,840120013012,PM2.5,0013,Active,FL1,Florida Dept. of Environmental Protection,R4,-5,NA,NA
4525899d3be929c4,Chesterfield,-80.198898,34.615299,147,US,SC,Chesterfield,America/New_York,NA,NA,NA,NA,450250001,PM2.5,0001,Active,SC1,South Carolina DHEC,R4,-5,NA,NA
765871585945f617,Burdens Creek,-78.8747,35.889402,91.5,US,NC,Durham,America/New_York,NA,NA,NA,NA,370630099,PM2.5,0099,Active,OAQ,EPA Office of Air Quality Planning and Standards,USEPA,-5,20500," Durham, NC "
3a24b6d11f7aaefe,Liberty High School,-115.14885,35.987908,NA,US,NV,Clark,America/Los_Angeles,NA,NA,NA,NA,320030299,PM2.5,0299,Active,NV1,Clark County Department of Environment and Sustainability ,R9,-8,29820," Las Vegas-Paradise, NV "
df9db91b21de4b29,Porterville-NFS,-119.055,36.0319,NA,US,CA,Tulare,America/Los_Angeles,NA,NA,NA,NA,061072010,PM2.5,2010,Active,CA6,San Joaquin Valley Unified APCD,R9,-8,NA,NA
2e6f5753b410a953,MCADORY,-87.0036,33.3311,NA,US,AL,Jefferson,America/Chicago,NA,NA,NA,NA,010731005,PM2.5,1005,Active,AL2,Jefferson County Department of Health,R4,-6,13820," Birmingham-Hoover, AL "
799ef4fcc704d9b7,Lawton North,-98.428802,34.632999,362,US,OK,Comanche,America/Chicago,NA,NA,NA,NA,400310651,PM2.5,0651,Active,OK1,Oklahoma Department of Environmental Quality,R6,-6,30020," Lawton, OK "
83059d4851151a44,Muscogee (Creek) Nation,-96.012749,35.901324,215.9,US,OK,Tulsa,America/Chicago,NA,NA,NA,NA,840401439029,PM2.5,1439,Active,CK1,Cherokee Nation,R6,-6,NA,NA
6aeaf2b1348c2eff,SPRINGHILL,-83.8761,36.0183,NA,US,TN,Knox,America/New_York,NA,NA,NA,NA,470931020,PM2.5,1020,Active,TN4,Knox County Dept. of Air Quality Management ,R4,-5,28940," Knoxville, TN "
989fa5ab4b1521f8,Grand Canyon ozone bench,-112.107028,36.060444,2124.3,US,AZ,Coconino,America/Phoenix,NA,NA,NA,NA,840040059999,PM2.5,0059,Active,NPS,National Park Service,USEPA,-7,NA,NA
97c5805fc72f0c37,Rio Vista,-121.70564,38.18839,6.7,US,CA,Solano,America/Los_Angeles,NA,NA,NA,NA,060959999,PM2.5,9999,Active,YS1,Yolo-Solano AQMD,R9,-8,46700," Vallejo-Fairfield, CA "
e9b9574d4de55583,CHARLESTON,-81.621161,38.346258,NA,US,WV,Kanawha,America/New_York,NA,NA,NA,NA,540390020,PM2.5,0020,Active,WV2,West Virginia Division of Air Quality - Wheeling,R3,-5,NA,NA
4df56a6250a89033,Vacaville,-121.9617,38.3525,NA,US,CA,Solano,America/Los_Angeles,NA,NA,NA,NA,060953002,PM2.5,3002,Active,YS1,Yolo-Solano AQMD,R9,-8,46700," Vallejo-Fairfield, CA "
649ac9880618b8d2,North Provo,-111.6632,40.253502,1411.2,US,UT,Utah,America/Denver,NA,NA,NA,NA,490490002,PM2.5,0002,Inactive,UT1,Utah Department of Environmental Quality,R8,-7,39340," Provo-Orem, UT "
5642931558b83d66,Chester BAM,-121.235001,40.301899,NA,US,CA,Plumas,America/Los_Angeles,NA,NA,NA,NA,060631007,PM2.5,1007,Active,NOS,Northern Sierra AQMD,R9,-8,NA,NA
6b8e96d859c4b74a,Greensburg,-79.5061,40.3053,NA,US,PA,Westmoreland,America/New_York,NA,NA,NA,NA,421290008,PM2.5,0008,Active,PA1,Pennsylvania Dept. of Environmental Protection,R3,-5,38300," Pittsburgh, PA "
fe672333abc620ba,Kokomo - E. Vaile Ave.,-86.109718,40.481349,NA,US,IN,Howard,America/Indiana/Indianapolis,NA,NA,NA,NA,180670004,PM2.5,0004,Active,IN4,Indiana Dept. of Environmental Management,R5,-5,29020," Kokomo, IN "
86f9213ea067d9b2,Preston PM25 BAM,-111.864167,42.082222,1439.9,US,ID,Franklin,America/Boise,NA,NA,NA,NA,840160410002,PM2.5,0410,Active,ID1,Idaho Department of Environmental Quality,R10,-7,NA,NA
c35d3be665878266,SPRINGFIELDSP,-72.58499,42.120248,NA,US,MA,Hampden,America/New_York,NA,NA,NA,NA,250130018,PM2.5,0018,Active,MA1,Massachusetts Dept. of Environmental Protection,R1,-5,NA,NA
b40d9f33740bce63,Provolt - Seed Orchard,-123.2321,42.290094,359,US,OR,Josephine,America/Los_Angeles,NA,NA,NA,NA,410330011,PM2.5,0011,Inactive,OR1,Oregon Dept. of Environmental Quality,R10,-8,24420," Grants Pass, OR "
70d48d7f681d0365,Medford - Grant & Belmont,-122.87923,42.31411,442.9,US,OR,Jackson,America/Los_Angeles,NA,NA,NA,NA,410290133,PM2.5,0133,Inactive,OR1,Oregon Dept. of Environmental Quality,R10,-8,32780," Medford, OR "
a2c8943de9b7288b,Sebastopol,-122.818294,38.403765,NA,US,CA,Sonoma,America/Los_Angeles,NA,NA,NA,NA,060970004,PM2.5,0004,Active,CA2,San Francisco Bay Area AQMD,R9,-8,42220," Santa Rosa-Petaluma, CA "
14500472d9d83073,Santa Rosa,-122.7097,38.4431,15.6,US,CA,Sonoma,America/Los_Angeles,NA,NA,NA,NA,060970003,PM2.5,0003,Inactive,CA2,San Francisco Bay Area AQMD,R9,-8,42220," Santa Rosa-Petaluma, CA "
66ab1a75fd81a573,Greeley Hospital,-104.7061,40.4147,1450.3,US,CO,Weld,America/Denver,NA,NA,NA,NA,081230006,PM2.5,0006,Active,CO1,Colorado Department of Public Health and Environment,R8,-7,24540," Greeley, CO "
64a2eb40f18374af,Erie,-80.0372,42.1428,NA,US,PA,Erie,America/New_York,NA,NA,NA,NA,420490003,PM2.5,0003,Active,PA1,Pennsylvania Dept. of Environmental Protection,R3,-5,21500," Erie, PA "
040bf8f50ba62500,WeymouthFR,-70.963346,42.241229,NA,US,MA,Norfolk,America/New_York,NA,NA,NA,NA,840250212005,PM2.5,0212,Active,MA1,Massachusetts Dept. of Environmental Protection,R1,-5,NA,NA
bb188acf631fc957,NMH48217,-83.157893,42.261669,NA,US,MI,Wayne,America/Detroit,NA,NA,NA,NA,261630097,PM2.5,0097,Active,MI1,"Michigan Department of Environment, Great Lakes, and Energy",R5,-5,19820," Detroit-Warren-Livonia, MI "
ef4a996b24c24659,CLOSED-DETROIT-W LAFAYETTE,-83.0689,42.3231,NA,US,MI,Wayne,America/Detroit,NA,NA,NA,NA,261630039,PM2.5,0039,Inactive,MI1,"Michigan Department of Environment, Great Lakes, and Energy",R5,-5,19820," Detroit-Warren-Livonia, MI "
6efee72164a3a9f4,Boston-Von Hillern,-71.056056,42.325197,4,US,MA,Suffolk,America/New_York,NA,NA,NA,NA,250250044,PM2.5,0044,Active,MA1,Massachusetts Dept. of Environmental Protection,R1,-5,NA,NA
d46d180b419334b3,Madras - Westside School,-121.131599,44.6306,688.4,US,OR,Jefferson,America/Los_Angeles,NA,NA,NA,NA,410310007,PM2.5,0007,Active,OR1,Oregon Dept. of Environmental Quality,R10,-8,NA,NA
6e4f963eb41fbaab,West Yellowstone Park Ent #2,-111.089618,44.657014,NA,US,MT,Gallatin,America/Denver,NA,NA,NA,NA,300310017,PM2.5,0017,Active,MT1,Montana DEQ,R8,-7,NA,NA
46b3676013a8806b,Watertown,-97.128802,44.89965,NA,US,SD,Codington,America/Chicago,NA,NA,NA,NA,460290002,PM2.5,0002,Active,SD1,South Dakota Department of Agriculture and Natural Resources,R8,-6,NA,NA
6b7edc1475b2cf3d,Abbotsford,-122.30972,49.04278,79.9,CA,BC,NA,America/Vancouver,NA,NA,NA,NA,000101003,PM2.5,1003,Active,BC2,Metro Vancouver,CA,-8,NA,NA
e637e52900ac59f1,Langdale Elementary,-123.479185,49.438848,70.2,CA,BC,NA,America/Vancouver,NA,NA,NA,NA,000105301,PM2.5,5301,Active,BC1,British Columbia Ministry of Environment,CA,-8,NA,NA
0875d34fe8f88d5d,Penticton Industrial Place,-119.59578,49.47753,308.1,CA,BC,NA,America/Vancouver,NA,NA,NA,NA,000105604,PM2.5,5604,Active,BC1,British Columbia Ministry of Environment,CA,-8,NA,NA
8fd498b0da2e219f,Cranbrook Muriel Baxter,-115.753682,49.507103,NA,CA,BC,NA,America/Edmonton,NA,NA,NA,NA,124000101904,PM2.5,0101,Active,BC1,British Columbia Ministry of Environment,CA,-8,NA,NA
3cf26a12344ceaab,Brandon,-99.9189,49.8422,NA,CA,MB,NA,America/Winnipeg,NA,NA,NA,NA,000070203,PM2.5,0203,Active,CN3,Manitoba Conservation Air Quality Section,CA,-6,NA,NA
ff64e1565fd93522,Conroe Relocated C78,-95.425,30.3503,42.7,US,TX,Montgomery,America/Chicago,NA,NA,NA,NA,483390078,PM2.5,0078,Active,TX1,Texas Commission on Environmental Quality,R6,-6,26420," Houston-Sugar Land-Baytown, TX "
3bc1aab6242f6c05,EBAM 3,-119.227474,38.247743,NA,US,CA,Gbu,America/Los_Angeles,NA,NA,NA,NA,840MMGBU1003,PM2.5,GBU1,Inactive,GBU,Great Basin Unified Air Pollution Control District,R9,-8,NA,NA
db782b0970a271dc,Sloughhouse,-121.211131,38.494475,59.2,US,CA,Sacramento,America/Los_Angeles,NA,NA,NA,NA,060675003,PM2.5,5003,Active,CA1,Sacramento Metro. AQMD,R9,-8,40900," Sacramento--Arden-Arcade--Roseville, CA "
bc8136aad74dbdaa,Reading Airport,-75.9686,40.3833,92.1,US,PA,Berks,America/New_York,NA,NA,NA,NA,420110011,PM2.5,0011,Active,PA1,Pennsylvania Dept. of Environmental Protection,R3,-5,39740," Reading, PA "
af4d0fb6322d7963,Worcester,-71.794701,42.263901,NA,US,MA,Worcester,America/New_York,NA,NA,NA,NA,250270023,PM2.5,0023,Active,MA1,Massachusetts Dept. of Environmental Protection,R1,-5,49340," Worcester, MA "
f7876534491b959f,DETROIT-SW,-83.1072,42.3042,NA,US,MI,Wayne,America/Detroit,NA,NA,NA,NA,261630015,PM2.5,0015,Active,MI1,"Michigan Department of Environment, Great Lakes, and Energy",R5,-5,19820," Detroit-Warren-Livonia, MI "
06dd4bb719ab265f,DP4TH,-83.091943,42.312158,NA,US,MI,Wayne,America/Detroit,NA,NA,NA,NA,261630098,PM2.5,0098,Active,MI1,"Michigan Department of Environment, Great Lakes, and Energy",R5,-5,19820," Detroit-Warren-Livonia, MI "
5e7f024195fbdb4e,John Day Dayton St,-118.951302,44.417999,NA,US,OR,Grant,America/Los_Angeles,NA,NA,NA,NA,410230002,PM2.5,0002,Active,OR1,Oregon Dept. of Environmental Quality,R10,-8,NA,NA
5f4a18d09ad0b9f7,Sheridan PD,-106.955933,44.815142,1192.6,US,WY,Sheridan,America/Denver,NA,NA,NA,NA,560330002,PM2.5,0002,Active,WY1,Wyoming Department of Environmental Quality,R8,-7,43260," Sheridan, WY "
b6cd6e44bd3626c7,McCall,-116.1065,44.890197,NA,US,ID,Valley,America/Boise,NA,NA,NA,NA,160850002,PM2.5,0002,Active,ID1,Idaho Department of Environmental Quality,R10,-7,NA,NA
53d7d4f5336693a4,McCall,-116.093903,44.8992,NA,US,ID,Valley,America/Boise,NA,NA,NA,NA,160850001,PM2.5,0001,Inactive,ID1,Idaho Department of Environmental Quality,R10,-7,NA,NA
4e4b65c643b3bb0c,Minneapolis-Near Road,-93.2551,44.9653,NA,US,MN,Hennepin,America/Chicago,NA,NA,NA,NA,270530962,PM2.5,0962,Active,MN1,Minnesota Pollution Control Agency,R5,-6,33460," Minneapolis-St. Paul-Bloomington, MN-WI "
35af155aca8154de,St. Paul Payne - Phalen,-93.082984,44.971539,NA,US,MN,Ramsey,America/Chicago,NA,NA,NA,NA,271231907,PM2.5,1907,Inactive,MN1,Minnesota Pollution Control Agency,R5,-6,33460," Minneapolis-St. Paul-Bloomington, MN-WI "
961a664a95c9f57e,Abbotsford Airport,-122.326556,49.021506,64.4,CA,BC,NA,America/Vancouver,NA,NA,NA,NA,000101005,PM2.5,1005,Active,BC2,Metro Vancouver,CA,-8,NA,NA
6df59c6184472aa1,Hope,-121.49944,49.36972,40,CA,BC,NA,America/Vancouver,NA,NA,NA,NA,000101401,PM2.5,1401,Active,BC2,Metro Vancouver,CA,-8,NA,NA
30ce60d9141bb118,Nelson Kutenai Place,-117.2953,49.4908,542.3,CA,BC,NA,America/Vancouver,NA,NA,NA,NA,000103302,PM2.5,3302,Inactive,BC1,British Columbia Ministry of Environment,CA,-8,NA,NA
2fe9d0a7ec6b6a66,Austin Webberville Road C171,-97.7131,30.2633,152.5,US,TX,Travis,America/Chicago,NA,NA,NA,NA,484530021,PM2.5,0021,Active,TX1,Texas Commission on Environmental Quality,R6,-6,12420," Austin-Round Rock, TX "
46e7d6c4177410bb,White Springs,-82.7947,30.4264,NA,US,FL,Hamilton,America/New_York,NA,NA,NA,NA,120470015,PM2.5,0015,Active,FL1,Florida Dept. of Environmental Protection,R4,-5,NA,NA
87fb04a69d9d4e1c,McDonald Observatory C317,-104.0853,30.6678,1830,US,TX,Jeff Davis,America/Chicago,NA,NA,NA,NA,482430004,PM2.5,0004,Inactive,TX1,Texas Commission on Environmental Quality,R6,-6,NA,NA
621f828694d36f12,Athens,-83.3575,33.925,NA,US,GA,Clarke,America/New_York,NA,NA,NA,NA,130590002,PM2.5,0002,Active,GA1,Georgia Department of Natural Resources,R4,-5,12020," Athens-Clarke County, GA "
9ca183a5218532e1,Mira Loma - Van Buren,-117.4925,33.996387,230.9,US,CA,Riverside,America/Los_Angeles,NA,NA,NA,NA,060658005,PM2.5,8005,Active,CA3,South Coast AQMD,R9,-8,40140," Riverside-San Bernardino-Ontario, CA "
9bfdbea7bba73e53,ELIZA HOWELL-NR,-83.266319,42.38599,NA,US,MI,Wayne,America/Detroit,NA,NA,NA,NA,261630093,PM2.5,0093,Active,MI1,"Michigan Department of Environment, Great Lakes, and Energy",R5,-5,19820," Detroit-Warren-Livonia, MI "
8e3f0e62b2af8cd7,Sweet Home - Fire Department,-122.7305,44.3958,164.1,US,OR,Linn,America/Los_Angeles,NA,NA,NA,NA,410432002,PM2.5,2002,Active,OR1,Oregon Dept. of Environmental Quality,R10,-8,10540," Albany-Lebanon, OR "
b6f1803ffceb2944,West Yellostone City Center,-111.105003,44.661701,2024.3,US,MT,Gallatin,America/Denver,NA,NA,NA,NA,300310016,PM2.5,0016,Inactive,MT1,Montana DEQ,R8,-7,14580," Bozeman, MT "
fbbe4efa98d8c27e,Baker City - Forest Service,-117.8446,44.78822,1047.7,US,OR,Baker,America/Los_Angeles,NA,NA,NA,NA,410010004,PM2.5,0004,Active,OR1,Oregon Dept. of Environmental Quality,R10,-8,NA,NA
a03d2c830ed4073d,Nanaimo Labieux Road,-123.99389,49.20083,122,CA,BC,NA,America/Vancouver,NA,NA,NA,NA,000102102,PM2.5,2102,Active,BC1,British Columbia Ministry of Environment,CA,-8,NA,NA
23330cdc38d43cca,Burnaby South,-122.98556,49.21528,144.9,CA,BC,NA,America/Vancouver,NA,NA,NA,NA,000100119,PM2.5,0119,Active,BC2,Metro Vancouver,CA,-8,NA,NA
d815e5c4a810d943,PASCAGOULA,-88.533897,30.377501,NA,US,MS,Jackson,America/Chicago,NA,NA,NA,NA,280590006,PM2.5,0006,Active,MS1,Mississippi DEQ,R4,-6,37700," Pascagoula, MS "
8a9301154d947490,Tallahassee Community College,-84.3483,30.4397,NA,US,FL,Leon,America/New_York,NA,NA,NA,NA,120730012,PM2.5,0012,Active,FL1,Florida Dept. of Environmental Protection,R4,-5,45220," Tallahassee, FL "
b3bb23043bf73a24,Bryan Finfeather Road,-96.362842,30.627409,NA,US,TX,Brazos,America/Chicago,NA,NA,NA,NA,840480411086,PM2.5,0411,Active,TX1,Texas Commission on Environmental Quality,R6,-6,17780," College Station-Bryan, TX "
cb3333cbf47e3423,Irmo,-81.154999,34.051102,68.9,US,SC,Lexington,America/New_York,NA,NA,NA,NA,450630008,PM2.5,0008,Active,SC1,South Carolina DHEC,R4,-5,17900," Columbia, SC "
c457463e4ba83f93,Los Angeles - N. Main Street,-118.226755,34.066429,30.5,US,CA,Los Angeles,America/Los_Angeles,NA,NA,NA,NA,060371103,PM2.5,1103,Active,CA3,South Coast AQMD,R9,-8,31100," Los Angeles-Long Beach-Santa Ana, CA "
c4b07c456167bec8,MARION,-90.1911,35.1967,NA,US,AR,Crittenden,America/Chicago,NA,NA,NA,NA,050350005,PM2.5,0005,Active,AR1,Arkansas Department of Environmental Quality,R6,-6,32820," Memphis, TN-MS-AR "
f1891228f013a3a1,Remount,-80.874084,35.213171,NA,US,NC,Mecklenburg,America/New_York,NA,NA,NA,NA,371190045,PM2.5,0045,Active,NC2,Mecklenburg County Air Quality,R4,-5,16740," Charlotte-Gastonia-Concord, NC-SC "
d823ba598cdeb4ef,GARINGER,-80.7831,35.2411,NA,US,NC,Mecklenburg,America/New_York,NA,NA,NA,NA,371190041,PM2.5,0041,Active,NC2,Mecklenburg County Air Quality,R4,-5,16740," Charlotte-Gastonia-Concord, NC-SC "
85ec23b44043b0a9,Friendship Park,-80.851473,35.281791,223.9,US,NC,Mecklenburg,America/New_York,NA,NA,NA,NA,840371190048,PM2.5,1190,Active,NC2,Mecklenburg County Air Quality,R4,-5,16740," Charlotte-Gastonia-Concord, NC-SC "
9060c382d7be6018,MOBILE - SANTA ANA,-106.524292,35.338407,1552.8,US,NM,Sandoval,America/Denver,NA,NA,NA,NA,840350439028,PM2.5,0439,Inactive,CK1,Cherokee Nation,R6,-7,NA,NA
1c27da3a83e19625,DILLARD,-77.9939,35.3692,32.9,US,NC,Wayne,America/New_York,NA,NA,NA,NA,371910005,PM2.5,0005,Inactive,NC1,North Carolina DEQ - Division of Air Quality,R4,-5,24140," Goldsboro, NC "
5dcfc8fafa9b1877,Miami,-94.83889,36.922222,NA,US,OK,N/A,America/Chicago,NA,NA,NA,NA,TT9209004,PM2.5,9004,Active,QT1,Quapaw Nation,R6,-6,33060," Miami, OK "
7a875733f97e23b0,Santa Cruz AMS,-121.98822,36.98332,NA,US,CA,Santa Cruz,America/Los_Angeles,NA,NA,NA,NA,060870007,PM2.5,0007,Active,MON,Monterey Bay Unified APCD,R9,-8,42100," Santa Cruz-Watsonville, CA "
edfa41bc240b14db,Lincoln,-121.3,38.89,50.9,US,CA,Placer,America/Los_Angeles,NA,NA,NA,NA,060612001,PM2.5,2001,Active,PLA,Placer County APCD,R9,-8,40900," Sacramento--Arden-Arcade--Roseville, CA "
9fb00b3818b0c127,MVILLE,-73.953,40.813,NA,US,NY,New York,America/New_York,NA,NA,NA,NA,360610119,PM2.5,0119,Inactive,NY1,New York Dept. of Environmental Conservation,R2,-5,35620," New York-Northern New Jersey-Long Island, NY-NJ-PA "
427bd059a3af7f0a,Buffalo,-78.8094,42.8781,NA,US,NY,Erie,America/New_York,NA,NA,NA,NA,360290005,PM2.5,0005,Active,NY1,New York Dept. of Environmental Conservation,R2,-5,15380," Buffalo-Niagara Falls, NY "
58bf35c12f4be731,Sarnia,-82.395341,42.990263,NA,CA,ON,NA,America/Nipigon,NA,NA,NA,NA,000061009,PM2.5,1009,Active,ON1,Ontario Ministry of the Environment,CA,-5,NA,NA
a08506a2649349ac,Kamiah-ID,-116.027496,46.2094,460.2,US,ID,Idaho,America/Los_Angeles,NA,NA,NA,NA,160490003,PM2.5,0003,Inactive,TRX,Quality Review and Exchange System for Tribes (QREST),R8,-8,NA,NA
8246844713d29bd1,Medicine Hat - Crescent Hts,-110.6814,50.0492,NA,CA,AB,NA,America/Edmonton,NA,NA,NA,NA,000090402,PM2.5,0402,Active,AB1,Alberta Environmental Monitoring and Reporting Agency (AEMERA),CA,-7,NA,NA
ed124e1a0fe842a2,Calgary Central,-114.0728,51.0467,NA,CA,AB,NA,America/Edmonton,NA,NA,NA,NA,000090227,PM2.5,0227,Active,AB1,Alberta Environmental Monitoring and Reporting Agency (AEMERA),CA,-7,NA,NA
96236bd453c473c8,FIREHALL-LABRADORCITY2,-66.910306,52.945487,NA,CA,NF,NA,America/Goose_Bay,NA,NA,NA,NA,000011002,PM2.5,1002,Active,CN1,Environment Canada,CA,-4,NA,NA
ca10bc96ed985315,Santa Fe,-99.2628,19.3573,2600.4,MX,DF,NA,America/Mexico_City,NA,NA,NA,NA,800090043,PM2.5,0043,Active,MXC,Red de Monitoreo de la Calidad del Aire de la Ciudad de Mexico,MX,-6,NA,NA
fa23e29469f7c201,Nezahualcóyotl,-99.0281,19.3919,2236.3,MX,MX,NA,America/Mexico_City,NA,NA,NA,NA,800150581,PM2.5,0581,Active,MXC,Red de Monitoreo de la Calidad del Aire de la Ciudad de Mexico,MX,-6,NA,NA
3e4a1a0b578ad9ee,Mountain View,-155.102036,19.555445,NA,US,HI,Hawaii,Pacific/Honolulu,NA,NA,NA,NA,150012023,PM2.5,2023,Active,HI1,Hawaii State Dept. of Health,R9,-10,NA,NA
4b9668fcd925c7da,North Holywood,-118.363036,34.181977,197.9,US,CA,Los Angeles,America/Los_Angeles,NA,NA,NA,NA,840060374010,PM2.5,0374,Active,CA3,South Coast AQMD,R9,-8,31100," Los Angeles-Long Beach-Santa Ana, CA "
587fb745074f24c7,Healdton,-97.474197,34.256901,293.1,US,OK,Carter,America/Chicago,NA,NA,NA,NA,400190297,PM2.5,0297,Active,OK1,Oklahoma Department of Environmental Quality,R6,-6,11620," Ardmore, OK "
5aa586974ceccbda,Jackson,-88.81959,35.705338,135.4,US,TN,Madison,America/Chicago,NA,NA,NA,NA,840471130010,PM2.5,1130,Active,TN1,Tennessee Air Pollution Control Div.,R4,-6,27180," Jackson, TN "
9d4ece3b7c02d60b,LOUDONMS,-84.3417,35.7197,250.1,US,TN,Loudon,America/New_York,NA,NA,NA,NA,471050109,PM2.5,0109,Active,TN1,Tennessee Air Pollution Control Div.,R4,-5,28940," Knoxville, TN "
f72cab0004077e1c,Temporary PM2.5,-120.6824,35.32121,129,US,CA,San Luis Obispo,America/Los_Angeles,NA,NA,NA,NA,060799999,PM2.5,9999,Inactive,SLO,San Luis Obispo County APCD,R9,-8,42020," San Luis Obispo-Paso Robles, CA "
deb4c9cf9bdad5d2,Union,-95.632127,36.918242,NA,US,OK,Nowata,America/Chicago,NA,NA,NA,NA,401050207,PM2.5,0207,Inactive,OK1,Oklahoma Department of Environmental Quality,R6,-6,NA,NA
0ca32b325ec46de0,Madera-City,-120.0341,36.9533,NA,US,CA,Madera,America/Los_Angeles,NA,NA,NA,NA,060392010,PM2.5,2010,Active,CA6,San Joaquin Valley Unified APCD,R9,-8,31460," Madera, CA "
3e20a44d2c90c297,Zayante Fire Station,-122.057206,37.067003,NA,US,CA,Santa Cruz,America/Los_Angeles,NA,NA,NA,NA,060879990,PM2.5,9990,Active,MON,Monterey Bay Unified APCD,R9,-8,42100," Santa Cruz-Watsonville, CA "
53893873fcce8d3a,JENISON,-85.852798,42.894402,390.4,US,MI,Ottawa,America/Detroit,NA,NA,NA,NA,261390005,PM2.5,0005,Active,MI1,"Michigan Department of Environment, Great Lakes, and Energy",R5,-5,26100," Holland-Grand Haven, MI "
a95411bae68f73ad,Buffalo Near-road,-78.76611,42.92111,NA,US,NY,Erie,America/New_York,NA,NA,NA,NA,360290023,PM2.5,0023,Active,NY1,New York Dept. of Environmental Conservation,R2,-5,NA,NA
e705ada0158252e8,Keene,-72.272332,42.930521,152.8,US,NH,Cheshire,America/New_York,NA,NA,NA,NA,330050007,PM2.5,0007,Active,NH1,New Hampshire Dept. of Environmental Services,R1,-5,28300," Keene, NH "
731895e95be1511e,Sarnia,-82.4056,42.9806,NA,CA,ON,NA,America/Nipigon,NA,NA,NA,NA,000061004,PM2.5,1004,Inactive,ON1,Ontario Ministry of the Environment,CA,-5,NA,NA
8945853811e96da5,Tonawanda II,-78.8993,42.9981,182.1,US,NY,Erie,America/New_York,NA,NA,NA,NA,360291014,PM2.5,1014,Active,NY1,New York Dept. of Environmental Conservation,R2,-5,NA,NA
c50712e4daa94ec6,"Emmetsburg, ILCC",-94.693298,43.123299,NA,US,IA,Palo Alto,America/Chicago,NA,NA,NA,NA,191471002,PM2.5,1002,Active,IA1,Iowa DNR,R7,-6,NA,NA
4fefccf07d7b8b19,Longueuil,-73.4939,45.5231,30.2,CA,QC,NA,America/Toronto,NA,NA,NA,NA,000050119,PM2.5,0119,Active,QC1,Canada-Quebec1,CA,-5,NA,NA
1a98d5ff786f9d2e,Forest Grove Pacific University,-123.10554,45.52483,79.9,US,OR,Washington,America/Los_Angeles,NA,NA,NA,NA,840410670006,PM2.5,0670,Active,OR1,Oregon Dept. of Environmental Quality,R10,-8,NA,NA
07ac3dbfb3d4efa1,Portland Benson High School,-122.651,45.5273,38.7,US,OR,Multnomah,America/Los_Angeles,NA,NA,NA,NA,840410510033,PM2.5,0510,Inactive,OR1,Oregon Dept. of Environmental Quality,R10,-8,NA,NA
6fcbf857f618b0d0,Hillsboro - Hare Field,-122.972398,45.528501,62.8,US,OR,Washington,America/Los_Angeles,NA,NA,NA,NA,410670004,PM2.5,0004,Active,OR1,Oregon Dept. of Environmental Quality,R10,-8,38900," Portland-Vancouver-Beaverton, OR-WA "
4bd6ca57439b9560,Caserne 17,-73.637328,45.593325,NA,CA,QC,NA,America/Toronto,NA,NA,NA,NA,CC0050135,PM2.5,0135,Active,QC2,Canada-Quebec2,CA,-5,NA,NA
16d2d3136649eeeb,Chenier,-73.541992,45.60176,NA,CA,QC,NA,America/Toronto,NA,NA,NA,NA,CC0050133,PM2.5,0133,Inactive,QC2,Canada-Quebec2,CA,-5,NA,NA
e37718067d8c863d,Chenier,-73.54197,45.60185,13.1,CA,QC,NA,America/Toronto,NA,NA,NA,NA,000050133,PM2.5,0133,Inactive,CN1,Environment Canada,CA,-5,NA,NA
f1af1c31329f7d3d,Parc de la Gatineau - La Pêche,-76.0178,45.6222,192.2,CA,QC,NA,America/Toronto,NA,NA,NA,NA,000052401,PM2.5,2401,Active,QC1,Canada-Quebec1,CA,-5,NA,NA
c5724c6d3f366116,Vancouver-NE Vancouver Plaza Dr,-122.5901,45.64987,76.9,US,WA,Clark,America/Los_Angeles,NA,NA,NA,NA,530110023,PM2.5,0023,Inactive,WA1,Washington Department of Ecology,R10,-8,NA,NA
51c193c3b5f24c64,FREDERICTON,-66.6475,45.9578,NA,CA,NB,NA,America/Moncton,NA,NA,NA,NA,000040103,PM2.5,0103,Inactive,CN1,Environment Canada,CA,-4,NA,NA
6df27e546b9f8801,Longview-30th Ave,-122.9619,46.1394,12.8,US,WA,Cowlitz,America/Los_Angeles,NA,NA,NA,NA,530150015,PM2.5,0015,Active,WA1,Washington Department of Ecology,R10,-8,31020," Longview, WA "
d21be0e058e87002,Kennewick-Metaline,-119.2015,46.2183,162,US,WA,Benton,America/Los_Angeles,NA,NA,NA,NA,530050002,PM2.5,0002,Active,WA1,Washington Department of Ecology,R10,-8,28420," Kennewick-Richland-Pasco, WA "
adc0451429dab41a,RED DEER RIVERSIDE DRIVE,-113.7942,52.2989,NA,CA,AB,NA,America/Edmonton,NA,NA,NA,NA,000090302,PM2.5,0302,Active,AB1,Alberta Environmental Monitoring and Reporting Agency (AEMERA),CA,-7,NA,NA
18936a4c3a1b8528,Quesnel Maple Drive,-122.4506,52.9631,456.3,CA,BC,NA,America/Vancouver,NA,NA,NA,NA,000101702,PM2.5,1702,Inactive,BC1,British Columbia Ministry of Environment,CA,-8,NA,NA
1e5f11a214caf558,Camarones,-99.1697,19.4684,2234.4,MX,DF,NA,America/Mexico_City,NA,NA,NA,NA,800090023,PM2.5,0023,Active,MXC,Red de Monitoreo de la Calidad del Aire de la Ciudad de Mexico,MX,-6,NA,NA
d3df63d86b5901fe,Fresno - Garland,-119.77321,36.78538,97,US,CA,Fresno,America/Los_Angeles,NA,NA,NA,NA,060190011,PM2.5,0011,Active,CA8,California Air Resources Board,R9,-8,NA,NA
1942a7333fe67571,VA SCHOOL,-76.3992,37.0033,176.9,US,VA,Hampton,America/New_York,NA,NA,NA,NA,516500004,PM2.5,0004,Inactive,VA1,Virginia Dept. of Environmental Quality,R3,-5,47260," Virginia Beach-Norfolk-Newport News, VA-NC "
b4bbe9989c3de7c7,Auburn,-121.103897,38.937801,NA,US,CA,Placer,America/Los_Angeles,NA,NA,NA,NA,060610002,PM2.5,0002,Active,PLA,Placer County APCD,R9,-8,40900," Sacramento--Arden-Arcade--Roseville, CA "
123e0a1ca9ac7e83,Rockville,-77.106903,39.114399,124.4,US,MD,Montgomery,America/New_York,NA,NA,NA,NA,240313001,PM2.5,3001,Active,MD1,Maryland Department of the Environment,R3,-5,47900," Washington-Arlington-Alexandria, DC-VA-MD-WV "
faa35adf517bf839,WY/KC,-94.6356,39.1175,NA,US,KS,Wyandotte,America/Chicago,NA,NA,NA,NA,202090021,PM2.5,0021,Active,KS1,Kansas Dept. of Health and Environment,R7,-6,28140," Kansas City, MO-KS "
3fb962d10658899c,CC_Armory,-119.766409,39.144804,1428.9,US,NV,Carson City,America/Los_Angeles,NA,NA,NA,NA,325100020,PM2.5,0020,Active,NV3,Nevada Division of Environmental Protection,R9,-8,NA,NA
da7646c66f7d65ef,Canton,-81.373,40.800717,311.1,US,OH,Stark,America/New_York,NA,NA,NA,NA,391510020,PM2.5,0020,Active,OH1,Ohio EPA-DAPC,R5,-5,15940," Canton-Massillon, OH "
d67ded9d8865a347,MADISON EAST,-89.3572,43.1008,NA,US,WI,Dane,America/Chicago,NA,NA,NA,NA,550250041,PM2.5,0041,Active,WI1,Wisconsin Dept. of Natural Resources,R5,-6,31540," Madison, WI "
a52ef4a4ca25ec6c,Vancouver-MacArthur Blvd,-122.611397,45.624802,NA,US,WA,Clark,America/Los_Angeles,NA,NA,NA,NA,530110019,PM2.5,0019,Inactive,WA1,Washington Department of Ecology,R10,-8,38900," Portland-Vancouver-Beaverton, OR-WA "
f7fc1565a30da917,PICTOU,-62.6953,45.6819,NA,CA,NS,NA,America/Halifax,NA,NA,NA,NA,000030901,PM2.5,0901,Active,CN1,Environment Canada,CA,-4,NA,NA
4dd59550991a23c5,Hood River,-121.5296,45.7035,NA,US,OR,Hood River,America/Los_Angeles,NA,NA,NA,NA,410271001,PM2.5,1001,Inactive,OR1,Oregon Dept. of Environmental Quality,R10,-8,NA,NA
d96094d9a218f697,Billlings Lockwood,-108.426551,45.806357,NA,US,MT,Yellowstone,America/Denver,NA,NA,NA,NA,301110087,PM2.5,0087,Active,MT1,Montana DEQ,R8,-7,NA,NA
27982532a67c65f7,Mobile-Goldendale,-120.813668,45.815778,NA,US,WA,037,America/Los_Angeles,NA,NA,NA,NA,MM0370179,PM2.5,0179,Inactive,WA1,Washington Department of Ecology,R10,-8,NA,NA
13e484bd5331ae6e,Tingwick,-71.9492,45.9075,266.9,CA,QC,NA,America/Toronto,NA,NA,NA,NA,000053801,PM2.5,3801,Active,QC1,Canada-Quebec1,CA,-5,NA,NA
2bfb33599a12be24,Golden Helipad,-116.966,51.2975,773.5,CA,BC,NA,America/Edmonton,NA,NA,NA,NA,000103202,PM2.5,3202,Active,BC1,British Columbia Ministry of Environment,CA,-8,NA,NA
af28949ccf3b56f0,Pahala,-155.4689,19.2065,NA,US,HI,Hawaii,Pacific/Honolulu,NA,NA,NA,NA,150012016,PM2.5,2016,Active,HI1,Hawaii State Dept. of Health,R9,-10,25900," Hilo, HI "
586b0b568b837e7d,UAM Iztapalapa,-99.0738,19.3607,2222.2,MX,DF,NA,America/Mexico_City,NA,NA,NA,NA,800090072,PM2.5,0072,Active,MXC,Red de Monitoreo de la Calidad del Aire de la Ciudad de Mexico,MX,-6,NA,NA
df160636410d308c,LEILANI,-154.898,19.463989,NA,US,HI,Hi1,Pacific/Honolulu,NA,NA,NA,NA,MMHI1LE01,PM2.5,LE01,Inactive,HI1,Hawaii State Dept. of Health,R9,-10,NA,NA
8e496feb9377e9a4,Tlalnepantla,-99.2045,19.529,2312.5,MX,MX,NA,America/Mexico_City,NA,NA,NA,NA,800151041,PM2.5,1041,Active,MXC,Red de Monitoreo de la Calidad del Aire de la Ciudad de Mexico,MX,-6,NA,NA
a5f9d1c800777cc2,KS Hawaii,-155.055038,19.611915,NA,US,HI,Hawaii,Pacific/Honolulu,NA,NA,NA,NA,840150012027,PM2.5,0012,Active,HI1,Hawaii State Dept. of Health,R9,-10,NA,NA
f47941f061210f6e,Nogales ITN,-110.951508,31.291294,NA,US,SO,Sonora,America/Hermosillo,NA,NA,NA,NA,800260006,PM2.5,0006,Active,AZ1,Arizona Department of Environmental Quality,R9,-7,NA,NA
e0802fac46132b4f,Hattiesburg,-89.287498,31.322779,NA,US,MS,Forrest,America/Chicago,NA,NA,NA,NA,280350004,PM2.5,0004,Active,MS1,Mississippi DEQ,R4,-6,25620," Hattiesburg, MS "
6e1231c600aa24fc,Albany,-84.1002,31.5767,66.8,US,GA,Dougherty,America/New_York,NA,NA,NA,NA,130950007,PM2.5,0007,Active,GA1,Georgia Department of Natural Resources,R4,-5,10500," Albany, GA "
5c43564a709d935d,Socorro Hueco C49,-106.28774,31.66752,1116.9,US,TX,El Paso,America/Denver,NA,NA,NA,NA,481410057,PM2.5,0057,Active,TX1,Texas Commission on Environmental Quality,R6,-7,21340," El Paso, TX "
9d1aad926a9cc797,El Paso Sun Metro C40,-106.5011,31.7586,1128.5,US,CH,El Paso,America/Ojinaga,NA,NA,NA,NA,481410053,PM2.5,0053,Inactive,TX1,Texas Commission on Environmental Quality,R6,-7,21340," El Paso, TX "
9426ddc1252a1dae,MARYVILL,-83.9422,35.7683,319.9,US,TN,Blount,America/New_York,NA,NA,NA,NA,470090011,PM2.5,0011,Active,TN1,Tennessee Air Pollution Control Div.,R4,-5,28940," Knoxville, TN "
c64ad135a9eec6a3,Pocomoke City,-75.545666,38.013875,NA,US,MD,Worcester,America/New_York,NA,NA,NA,NA,840240476432,PM2.5,0476,Active,MD1,Maryland Department of the Environment,R3,-5,NA,NA
abc0708bf1424443,Holbrook,-80.2897,39.82,NA,US,PA,Greene,America/New_York,NA,NA,NA,NA,420590002,PM2.5,0002,Active,PA1,Pennsylvania Dept. of Environmental Protection,R3,-5,NA,NA
561e3254edd61de0,Uniontown,-79.805499,39.917663,NA,US,PA,Fayette,America/New_York,NA,NA,NA,NA,840420510524,PM2.5,0510,Active,PA1,Pennsylvania Dept. of Environmental Protection,R3,-5,38300," Pittsburgh, PA "
4c5bb10ba7217953,York,-76.6994,39.9653,NA,US,PA,York,America/New_York,NA,NA,NA,NA,421330008,PM2.5,0008,Active,PA1,Pennsylvania Dept. of Environmental Protection,R3,-5,49620," York-Hanover, PA "
fa0e479476c96ba9,CHI_WASH,-87.5389,41.6878,NA,US,IL,Cook,America/Chicago,NA,NA,NA,NA,170310022,PM2.5,0022,Inactive,IL1,Illinois EPA,R5,-6,16980," Chicago-Naperville-Joliet, IL-IN-WI "
63dc61c26b84fe12,CHI_SP,-87.7239,41.9136,NA,US,IL,Cook,America/Chicago,NA,NA,NA,NA,170310057,PM2.5,0057,Active,IL1,Illinois EPA,R5,-6,16980," Chicago-Naperville-Joliet, IL-IN-WI "
6ccf91c5dcbf4f5e,Prineville - Davidson Park,-120.844773,44.299787,873.5,US,OR,Crook,America/Los_Angeles,NA,NA,NA,NA,410130100,PM2.5,0100,Active,OR1,Oregon Dept. of Environmental Quality,R10,-8,39260," Prineville, OR "
f91b36e848a586cc,Lac-Édouard,-72.2914,47.6472,368.4,CA,QC,NA,America/Toronto,NA,NA,NA,NA,000053901,PM2.5,3901,Inactive,QC1,Canada-Quebec1,CA,-5,NA,NA
e9c3161ffb2b3654,Edmonton South,-113.6111,53.5028,NA,CA,AB,NA,America/Edmonton,NA,NA,NA,NA,000090120,PM2.5,0120,Active,AB1,Alberta Environmental Monitoring and Reporting Agency (AEMERA),CA,-7,NA,NA
15e20c3838408925,Edmonton Central,-113.4992,53.5453,NA,CA,AB,NA,America/Edmonton,NA,NA,NA,NA,000090130,PM2.5,0130,Active,AB1,Alberta Environmental Monitoring and Reporting Agency (AEMERA),CA,-7,NA,NA
072f7c834021330b,Elk Island,-112.8686,53.6825,NA,CA,AB,NA,America/Edmonton,NA,NA,NA,NA,000091101,PM2.5,1101,Active,AB1,Alberta Environmental Monitoring and Reporting Agency (AEMERA),CA,-7,NA,NA
9fa4698ad2aa3e81,Vanderhoof Courthouse,-124.0061,54.0163,NA,CA,BC,NA,America/Vancouver,NA,NA,NA,NA,000106900,PM2.5,6900,Active,BC1,British Columbia Ministry of Environment,CA,-8,NA,NA
cdc088789bb1b747,Estación San Juanico,-100.83994,20.537683,482.5,MX,GJ,NA,America/Mexico_City,NA,NA,NA,NA,80011G003,PM2.5,G003,Active,IEG,Secretaría de Medio Ambiente y Ordenamiento Territorial,MX,-6,NA,NA
ccd7022428f4f42b,Ward,-88.27792,32.36253,NA,US,AL,Sumter,America/Chicago,NA,NA,NA,NA,011190003,PM2.5,0003,Active,AL1,Alabama Department of Environmental Management,R4,-6,NA,NA
c2faffe0eabb7f3d,PITTAGCT,-77.360126,35.641276,6.7,US,NC,Pitt,America/New_York,NA,NA,NA,NA,371470006,PM2.5,0006,Active,NC1,North Carolina DEQ - Division of Air Quality,R4,-5,24780," Greenville, NC "
d782dcf9c1173677,Jackson,-88.8092,35.6567,149.5,US,TN,Madison,America/Chicago,NA,NA,NA,NA,471130006,PM2.5,0006,Inactive,TN1,Tennessee Air Pollution Control Div.,R4,-6,27180," Jackson, TN "
fc7e94fa9b4cf9c6,Berkeley Aquatic Park,-122.302741,37.864767,2.7,US,CA,Alameda,America/Los_Angeles,NA,NA,NA,NA,060010013,PM2.5,0013,Active,CA2,San Francisco Bay Area AQMD,R9,-8,NA,NA
4eb119eb635df3c4,WATSON,-85.8961,38.0608,NA,US,KY,Jefferson,America/Kentucky/Louisville,NA,NA,NA,NA,211110051,PM2.5,0051,Active,KY2,Louisville Metro Air Pollution Control District ,R4,-5,31140," Louisville, KY-IN "
83c93595617fea30,Adams-Birch,-104.93645,39.8281,1568.9,US,CO,Adams,America/Denver,NA,NA,NA,NA,840080010010,PM2.5,0010,Active,CO1,Colorado Department of Public Health and Environment,R8,-7,NA,NA
b3754fc771c8cfcd,Adams,-104.938463,39.828387,NA,US,CO,Adams,America/Denver,NA,NA,NA,NA,080010008,PM2.5,0008,Inactive,CO1,Colorado Department of Public Health and Environment,R8,-7,19740," Denver-Aurora, CO "
83475bf6abed8efe,DECATUR,-88.9256,39.8669,NA,US,IL,Macon,America/Chicago,NA,NA,NA,NA,171150013,PM2.5,0013,Active,IL1,Illinois EPA,R5,-6,19500," Decatur, IL "
0f46c5073a4b8288,Quincy BAM,-120.9478,39.9369,NA,US,CA,Plumas,America/Los_Angeles,NA,NA,NA,NA,060639901,PM2.5,9901,Active,NOS,Northern Sierra AQMD,R9,-8,NA,NA
58b7d5348b5606d3,Ouray,-109.68737,40.054848,NA,US,UT,Uintah,America/Denver,NA,NA,NA,NA,490472003,PM2.5,2003,Active,UTE,Ute Tribe,R8,-7,NA,NA
75ba3eaff7a6a4f3,Anderson-Eastside Elem. Sch,-85.652222,40.125557,241.9,US,IN,Madison,America/Indiana/Indianapolis,NA,NA,NA,NA,180950011,PM2.5,0011,Active,IN4,Indiana Dept. of Environmental Management,R5,-5,11300," Anderson, IN "
b0a1c27caa9585eb,Sinclair Mobile,-107.119184,41.783389,2016.1,US,WY,Carbon,America/Denver,NA,NA,NA,NA,560071000,PM2.5,1000,Inactive,WY1,Wyoming Department of Environmental Quality,R8,-7,NA,NA
ffe8656b94fc92dc,NewCastle,-104.191902,43.881401,1438.4,US,WY,Weston,America/Denver,NA,NA,NA,NA,560450003,PM2.5,0003,Active,BLW,Bureau of Land Management - Wyoming,R8,-7,NA,NA
061b13e7b3c985d4,Bend Pine Ridge Elementary School,-121.330964,44.024283,1166.6,US,OR,Deschutes,America/Los_Angeles,NA,NA,NA,NA,840410170116,PM2.5,0170,Active,OR1,Oregon Dept. of Environmental Quality,R10,-8,13460," Bend, OR "
1cd2549c9a714f4a,Ontario May Roberts Elementary School,-116.9697,44.033365,655.1,US,OR,Malheur,America/Boise,NA,NA,NA,NA,840410450001,PM2.5,0450,Active,OR1,Oregon Dept. of Environmental Quality,R10,-8,NA,NA
7775706b56b49701,Bend NE 8th & Emerson,-121.294068,44.054661,1114.5,US,OR,Deschutes,America/Los_Angeles,NA,NA,NA,NA,840410170123,PM2.5,0170,Active,OR1,Oregon Dept. of Environmental Quality,R10,-8,NA,NA
7f4b968d13a1753e,Juniper,-106.228897,44.2089,1359.4,US,WY,Johnson,America/Denver,NA,NA,NA,NA,560190003,PM2.5,0003,Inactive,BLW,Bureau of Land Management - Wyoming,R8,-7,NA,NA
2e5fc73cd8094283,Tiverton,-81.5753,44.2994,NA,CA,ON,NA,America/Toronto,NA,NA,NA,NA,000062501,PM2.5,2501,Active,ON1,Ontario Ministry of the Environment,CA,-5,NA,NA
3634b2337ffa821e,Lake Forest Park-Town Center,-122.277192,47.753633,16.2,US,WA,King,America/Los_Angeles,NA,NA,NA,NA,530330024,PM2.5,0024,Active,WA1,Washington Department of Ecology,R10,-8,42660," Seattle-Tacoma-Bellevue, WA "
e20dcee18d92919c,Woodinville-133rd Ave,-122.162003,47.754398,11.9,US,WA,King,America/Los_Angeles,NA,NA,NA,NA,530330028,PM2.5,0028,Inactive,WA1,Washington Department of Ecology,R10,-8,42660," Seattle-Tacoma-Bellevue, WA "
eb666283cc90d71b,Colbert-Greenbluff,-117.34327,47.808226,577.4,US,WA,Spokane,America/Los_Angeles,NA,NA,NA,NA,530639995,PM2.5,9995,Active,WA3,Spokane Regional Clean Air Agency,R10,-8,44060," Spokane, WA "
a862b101833860b1,Simi Valley - Cochran Street,-118.68369,34.27632,NA,US,CA,Ventura,America/Los_Angeles,NA,NA,NA,NA,061112002,PM2.5,2002,Active,CA5,Ventura County APCD,R9,-8,37100," Oxnard-Thousand Oaks-Ventura, CA "
06c3f2a66f8b708e,Laney College,-122.263376,37.793624,4,US,CA,Alameda,America/Los_Angeles,NA,NA,NA,NA,060010012,PM2.5,0012,Active,CA2,San Francisco Bay Area AQMD,R9,-8,41860," San Francisco-Oakland-Fremont, CA "
7157b3dbac7c2043,Oakland West,-122.282402,37.8148,2.7,US,CA,Alameda,America/Los_Angeles,NA,NA,NA,NA,060010011,PM2.5,0011,Active,CA2,San Francisco Bay Area AQMD,R9,-8,41860," San Francisco-Oakland-Fremont, CA "
fa9b9f90068422f7,Berkeley,-122.310303,37.8778,5.8,US,CA,Alameda,America/Los_Angeles,NA,NA,NA,NA,060012004,PM2.5,2004,Inactive,CA2,San Francisco Bay Area AQMD,R9,-8,NA,NA
6c067619791f7480,MMOAQ2011,-120.3175,37.9598,NA,US,CA,Tuolumne,America/Los_Angeles,NA,NA,NA,NA,MMOAQ2011,PM2.5,2011,Active,TUO,Tuolumne County APCD,R9,-8,NA,NA
2b329cb5f6126d01,MOUNDSVILLE,-80.7342,39.9158,213.5,US,WV,Marshall,America/New_York,NA,NA,NA,NA,540511002,PM2.5,1002,Active,WV2,West Virginia Division of Air Quality - Wheeling,R3,-5,48540," Wheeling, WV-OH "
261a322ea5c2f4b5,Scottsbluff HS,-103.658056,41.875556,1184.6,US,NE,Scotts Bluff,America/Denver,NA,NA,NA,NA,840311570006,PM2.5,1570,Active,NE1,Nebraska Department of Environment and Energy,R7,-7,42420," Scottsbluff, NE "
620716337ab81948,PRB-Belle Ayr,-105.343,44.09707,1385,US,WY,Campbell,America/Denver,NA,NA,NA,NA,560050892,PM2.5,0892,Inactive,WY1,Wyoming Department of Environmental Quality,R8,-7,23940," Gillette, WY "
52a2bfe8911fd63c,Research Farm,-96.807299,44.348604,NA,US,SD,Brookings,America/Chicago,NA,NA,NA,NA,460110003,PM2.5,0003,Active,SD1,South Dakota Department of Agriculture and Natural Resources,R8,-6,NA,NA
e800226712b57996,Airway Heights-West 12th (US),-117.589027,47.645351,729.3,US,WA,Spokane,America/Los_Angeles,NA,NA,NA,NA,530639999,PM2.5,9999,Active,WA1,Washington Department of Ecology,R10,-8,NA,NA
874c4892b173c743,Coeur d' Alene PM2.5,-116.765297,47.682201,NA,US,ID,Kootenai,America/Los_Angeles,NA,NA,NA,NA,160550006,PM2.5,0006,Inactive,ID1,Idaho Department of Environmental Quality,R10,-8,17660," Coeur d'Alene, ID "
b810139ed9337c1e,Kitimat Haul Road,-128.70269,54.029194,2.1,CA,BC,NA,America/Vancouver,NA,NA,NA,NA,000103902,PM2.5,3902,Active,BC1,British Columbia Ministry of Environment,CA,-8,NA,NA
f6c591cba5539bc5,Flin Flon,-101.8753,54.765,NA,CA,MB,NA,America/Winnipeg,NA,NA,NA,NA,000070301,PM2.5,0301,Active,CN3,Manitoba Conservation Air Quality Section,CA,-6,NA,NA
739f8d1488a675d8,Estación Guanajuato,-101.25751700000001,21.017676,610,MX,GJ,NA,America/Mexico_City,NA,NA,NA,NA,80011G018,PM2.5,G018,Active,IEG,Secretaría de Medio Ambiente y Ordenamiento Territorial,MX,-6,NA,NA
4e1ddcec9f607944,Honolulu,-157.858093,21.310301,NA,US,HI,Honolulu,Pacific/Honolulu,NA,NA,NA,NA,150031001,PM2.5,1001,Active,HI1,Hawaii State Dept. of Health,R9,-10,26180," Honolulu, HI "
64694aad8e3d372a,Shreveport Airport,-93.7492,32.5364,NA,US,LA,Bossier,America/Chicago,NA,NA,NA,NA,220150008,PM2.5,0008,Active,LA1,Louisiana Department of Environmental Quality,R6,-6,43340," Shreveport-Bossier City, LA "
6d5ce4a40c86d325,San Ysidro,-117.029028,32.543475,20.7,US,CA,San Diego,America/Los_Angeles,NA,NA,NA,NA,060731019,PM2.5,1019,Inactive,CA4,San Diego APCD,R9,-8,41740," San Diego-Carlsbad-San Marcos, CA "
358bc5d9a4f18b49,Seminole Community College (AG COMP),-81.31,28.7456,NA,US,FL,Seminole,America/New_York,NA,NA,NA,NA,121171002,PM2.5,1002,Active,FL1,Florida Dept. of Environmental Protection,R4,-5,36740," Orlando-Kissimmee, FL "
dd924c094d7dade8,Galveston Airport C1034,-94.8564,29.2631,3.1,US,TX,Galveston,America/Chicago,NA,NA,NA,NA,481671034,PM2.5,1034,Active,TX1,Texas Commission on Environmental Quality,R6,-6,26420," Houston-Sugar Land-Baytown, TX "
fd451a4c376d20f5,Camp Pendleton,-117.396156,33.217026,16.2,US,CA,San Diego,America/Los_Angeles,NA,NA,NA,NA,060731008,PM2.5,1008,Active,CA4,San Diego APCD,R9,-8,41740," San Diego-Carlsbad-San Marcos, CA "
cb3fdefb8abf0787,Mesa - Brooks Reservoir,-111.8651,33.4105,383.1,US,AZ,Maricopa,America/Phoenix,NA,NA,NA,NA,040131003,PM2.5,1003,Active,AZ2,Maricopa County Air Quality Department,R9,-7,38060," Phoenix-Mesa-Scottsdale, AZ "
3e16c4d18f0ccb6e,Santa Ynez,-120.07506,34.605819,204.7,US,CA,Santa Barbara,America/Los_Angeles,NA,NA,NA,NA,060833001,PM2.5,3001,Active,CA9,Santa Barbara County Air Pollution Control District,R9,-8,42060," Santa Barbara-Santa Maria, CA "
9449b9192fcba1b4,Garrett Jr. High,-114.835007,35.969848,713.4,US,NV,Clark,America/Los_Angeles,NA,NA,NA,NA,320030602,PM2.5,0602,Active,NV1,Clark County Department of Environment and Sustainability ,R9,-8,29820," Las Vegas-Paradise, NV "
cfe8729c8f10ae48,DYERSBURG,-89.3819,36.0528,NA,US,TN,Dyer,America/Chicago,NA,NA,NA,NA,470450004,PM2.5,0004,Active,TN1,Tennessee Air Pollution Control Div.,R4,-6,20540," Dyersburg, TN "
31df12c4d6358ecf,RYDER,-101.571583,47.940861,665.5,US,ND,Ward,America/Chicago,NA,NA,NA,NA,381010003,PM2.5,0003,Active,ND1,North Dakota Department of Environmental Quality,R8,-6,NA,NA
42126f19b70e1099,Quesnel Senior Secondary,-122.4922,52.9822,500.2,CA,BC,NA,America/Vancouver,NA,NA,NA,NA,000101701,PM2.5,1701,Inactive,BC1,British Columbia Ministry of Environment,CA,-8,NA,NA
0f903038ea9eb66e,Edmonton East,-113.3681,53.5472,NA,CA,AB,NA,America/Edmonton,NA,NA,NA,NA,000090121,PM2.5,0121,Active,AB1,Alberta Environmental Monitoring and Reporting Agency (AEMERA),CA,-7,NA,NA
6ce99beaee1575ab,Terrace BC Access Centre,-128.5975,54.5183,510.3,CA,BC,NA,America/Vancouver,NA,NA,NA,NA,000102501,PM2.5,2501,Inactive,BC1,British Columbia Ministry of Environment,CA,-8,NA,NA
7346f7d239d40402,TERRACE SKEENA MIDDLE SCHOOL,-128.6075,54.52167,NA,CA,BC,NA,America/Vancouver,NA,NA,NA,NA,000102503,PM2.5,2503,Active,BC1,British Columbia Ministry of Environment,CA,-8,NA,NA
c42b53e17bc37c95,Beaverlodge,-119.3967,55.1964,NA,CA,AB,NA,America/Edmonton,NA,NA,NA,NA,000091501,PM2.5,1501,Active,AB1,Alberta Environmental Monitoring and Reporting Agency (AEMERA),CA,-7,NA,NA
c733850d59531f1e,Anthony,-106.5992,32.0036,1146.8,US,NM,Dona Ana,America/Denver,NA,NA,NA,NA,350130016,PM2.5,0016,Active,NM1,New Mexico Air Quality Bureau,R6,-7,29740," Las Cruces, NM "
7911aac04aee4f6e,Geronimo,-110.9667,32.25,747.9,US,AZ,Pima,America/Phoenix,NA,NA,NA,NA,040191113,PM2.5,1113,Active,AZ3,Pima County Department of Environmental Quality,R9,-7,46060," Tucson, AZ "
7bc7641191b90972,Kaufman C71,-96.3175,32.565,NA,US,TX,Kaufman,America/Chicago,NA,NA,NA,NA,482570005,PM2.5,0005,Active,TX1,Texas Commission on Environmental Quality,R6,-6,19100," Dallas-Fort Worth-Arlington, TX "
f956736864411102,MSHOALS,-87.6506,34.7606,NA,US,AL,Colbert,America/Chicago,NA,NA,NA,NA,010331002,PM2.5,1002,Inactive,AL1,Alabama Department of Environmental Management,R4,-6,22520," Florence-Muscle Shoals, AL "
4635409d226f2a76,Greenville Old HD,-82.402802,34.8386,NA,US,SC,Greenville,America/New_York,NA,NA,NA,NA,450450008,PM2.5,0008,Inactive,SC1,South Carolina DHEC,R4,-5,24860," Greenville, SC "
451e38d251c23986,Catawba Indian Nation,-80.874283,34.91263,NA,US,SC,York,America/New_York,NA,NA,NA,NA,TT0328801,PM2.5,8801,Active,CAT,Catawba Indian Nation,R4,-5,16740," Charlotte-Gastonia-Concord, NC-SC "
ac81129be5bb39a7,Parlier,-119.5375,36.6103,NA,US,CA,Fresno,America/Los_Angeles,NA,NA,NA,NA,060193002,PM2.5,3002,Inactive,CA8,California Air Resources Board,R9,-8,23420," Fresno, CA "
7c87d7d2daa0517d,JBL,-82.46714,27.95555,NA,US,FL,Hillsborough,America/New_York,NA,NA,NA,NA,120571111,PM2.5,1111,Inactive,FL4,Hillsborough County - Tampa ,R4,-5,NA,NA
18d6d6402a8a6eeb,St. Petersburg College,-82.7361,27.9711,NA,US,FL,Pinellas,America/New_York,NA,NA,NA,NA,121030004,PM2.5,0004,Active,FL1,Florida Dept. of Environmental Protection,R4,-5,45300," Tampa-St. Petersburg-Clearwater, FL "
05a055f74ba0125f,Eagle Pass C319,-100.451155,28.704607,253.2,US,TX,Maverick,America/Chicago,NA,NA,NA,NA,483230004,PM2.5,0004,Active,TX1,Texas Commission on Environmental Quality,R6,-6,20580," Eagle Pass, TX "
1158a431d0c99474,San Antonio Old Hwy90 C677,-98.580505,29.423933,213.5,US,TX,Bexar,America/Chicago,NA,NA,NA,NA,480290677,PM2.5,0677,Active,TX1,Texas Commission on Environmental Quality,R6,-6,41700," San Antonio, TX "
cee58b29fcacbef8,Escondido,-117.075325,33.127712,200.1,US,CA,San Diego,America/Los_Angeles,NA,NA,NA,NA,060731002,PM2.5,1002,Inactive,CA4,San Diego APCD,R9,-8,41740," San Diego-Carlsbad-San Marcos, CA "
dd3f5b6d85e284d7,Diablo,-111.968,33.3961,353.8,US,AZ,Maricopa,America/Phoenix,NA,NA,NA,NA,040134019,PM2.5,4019,Inactive,AZ2,Maricopa County Air Quality Department,R9,-7,38060," Phoenix-Mesa-Scottsdale, AZ "
6e20b0773940c06d,Tempe,-111.9347,33.4124,352.3,US,AZ,Maricopa,America/Phoenix,NA,NA,NA,NA,040134005,PM2.5,4005,Active,AZ2,Maricopa County Air Quality Department,R9,-7,38060," Phoenix-Mesa-Scottsdale, AZ "
eac781fa58bb673e,PARR,-92.2758,34.756100000000004,NA,US,AR,Pulaski,America/Chicago,NA,NA,NA,NA,051190007,PM2.5,0007,Active,AR1,Arkansas Department of Environmental Quality,R6,-6,30780," Little Rock-North Little Rock, AR "
b4d89f3756e28e0c,Burns Lake Fire Centre,-125.7643,54.2307,652.4,CA,BC,NA,America/Vancouver,NA,NA,NA,NA,000105201,PM2.5,5201,Active,BC1,British Columbia Ministry of Environment,CA,-8,NA,NA
885a0f35f88eb3d6,Estación Hospital General,-101.4258,20.9479,543.8,MX,GJ,NA,America/Mexico_City,NA,NA,NA,NA,80011G009,PM2.5,G009,Active,IEG,Secretaría de Medio Ambiente y Ordenamiento Territorial,MX,-6,NA,NA
2903852e26e38255,Rose Elementary,-110.9797,32.1731,NA,US,AZ,Pima,America/Phoenix,NA,NA,NA,NA,040191032,PM2.5,1032,Active,AZ3,Pima County Department of Environmental Quality,R9,-7,46060," Tucson, AZ "
d44238e2b013dca7,Goleta,-119.827797,34.445301,NA,US,CA,Santa Barbara,America/Los_Angeles,NA,NA,NA,NA,060832011,PM2.5,2011,Active,CA9,Santa Barbara County Air Pollution Control District,R9,-8,42060," Santa Barbara-Santa Maria, CA "
675ff9841dd59583,HERNANDO,-89.987778,34.820556,NA,US,MS,De Soto,America/Chicago,NA,NA,NA,NA,280330002,PM2.5,0002,Active,MS1,Mississippi DEQ,R4,-6,32820," Memphis, TN-MS-AR "
db844fbc4f735326,Lebec,-118.8791,34.8289,NA,US,CA,Los Angeles,America/Los_Angeles,NA,NA,NA,NA,060379034,PM2.5,9034,Inactive,CA8,California Air Resources Board,R9,-8,12540," Bakersfield, CA "
b1433bbcad173146,Rossville,-85.3009,34.9789,200.1,US,GA,Walker,America/New_York,NA,NA,NA,NA,132950002,PM2.5,0002,Inactive,GA1,Georgia Department of Natural Resources,R4,-5,16860," Chattanooga, TN-GA "
986996c1f25effc1,Kingsport,-82.5217,36.5408,NA,US,TN,Sullivan,America/New_York,NA,NA,NA,NA,471631007,PM2.5,1007,Active,TN1,Tennessee Air Pollution Control Div.,R4,-5,28700," Kingsport-Bristol-Bristol, TN-VA "
2c9f3b0d038a55a2,Ponca City,-97.081278,36.697189,NA,US,OK,Kay,America/Chicago,NA,NA,NA,NA,400710604,PM2.5,0604,Active,OK1,Oklahoma Department of Environmental Quality,R6,-6,38620," Ponca City, OK "
48f4985b0cd1f848,Bloomington - Binford,-86.504747,39.159372,250.1,US,IN,Monroe,America/Indiana/Indianapolis,NA,NA,NA,NA,181050003,PM2.5,0003,Active,IN4,Indiana Dept. of Environmental Management,R5,-5,14020," Bloomington, IN "
26a595786faf5e96,Sycamore,-84.36612,39.2787,298.9,US,OH,Hamilton,America/New_York,NA,NA,NA,NA,390610006,PM2.5,0006,Active,OH1,Ohio EPA-DAPC,R5,-5,17140," Cincinnati-Middletown, OH-KY-IN "
d34ac3e14d9fe25d,Warren - Laird Ave.,-80.801914,41.231167,276.6,US,OH,Trumbull,America/New_York,NA,NA,NA,NA,391550005,PM2.5,0005,Inactive,OH1,Ohio EPA-DAPC,R5,-5,49660," Youngstown-Warren-Boardman, OH-PA "
bbd8e052601cc813,Laramie Mobile BAM,-105.61361,41.32307,2196,US,WY,Albany,America/Denver,NA,NA,NA,NA,840560019998,PM2.5,0019,Inactive,WY1,Wyoming Department of Environmental Quality,R8,-7,29660," Laramie, WY "
dc97587feca5e344,Hamilton PS 46,-114.158889,46.243621,NA,US,MT,Ravalli,America/Denver,NA,NA,NA,NA,300810007,PM2.5,0007,Active,MT1,Montana DEQ,R8,-7,NA,NA
2ee174b885e6ff4a,Toppenish-Yakama Tribe,-120.332603,46.380199,215.9,US,WA,Yakima,America/Los_Angeles,NA,NA,NA,NA,530770015,PM2.5,0015,Active,WA1,Washington Department of Ecology,R10,-8,49420," Yakima, WA "
5faf028fd19f6434,Miles City,-105.862777,46.396944,NA,US,MT,Mt1,America/Denver,NA,NA,NA,NA,840MMMT10009,PM2.5,MT10,Inactive,MT1,Montana DEQ,R8,-7,NA,NA
8770f866fa0581a2,Lapwai,-116.8062,46.3972,NA,US,ID,N/A,America/Los_Angeles,NA,NA,NA,NA,840TT1820013,PM2.5,1820,Active,NPT,Nez Perce Tribe,R10,-8,NA,NA
388ad922b32535a8,Sudbury,-81.003105,46.491941,NA,CA,ON,NA,America/Toronto,NA,NA,NA,NA,000060610,PM2.5,0610,Active,ON1,Ontario Ministry of the Environment,CA,-5,NA,NA
6b527d73971bb329,Bad River Tribal School,-90.6986,46.6144,NA,US,WI,Ashland,America/Chicago,NA,NA,NA,NA,550030010,PM2.5,0010,Active,WI1,Wisconsin Dept. of Natural Resources,R5,-6,NA,NA
7016187c35d953ef,MBARD Office - Monterey,-121.804919,36.572725,147.6,US,CA,Monterey,America/Los_Angeles,NA,NA,NA,NA,060539998,PM2.5,9998,Inactive,MON,Monterey Bay Unified APCD,R9,-8,41500," Salinas, CA "
88f3f7f66f025160,MOBILE - OSAGE,-96.340317,36.670258,261.4,US,OK,Osage,America/Chicago,NA,NA,NA,NA,401139020,PM2.5,9020,Inactive,CK1,Cherokee Nation,R6,-6,46140," Tulsa, OK "
a188260263660346,Oldtown,-76.604698,39.2981,11.9,US,MD,Baltimore (City),America/New_York,NA,NA,NA,NA,245100040,PM2.5,0040,Active,MD1,Maryland Department of the Environment,R3,-5,12580," Baltimore-Towson, MD "
1fbc1acfe9071954,Farrell,-80.485,41.215,NA,US,PA,Mercer,America/New_York,NA,NA,NA,NA,420850100,PM2.5,0100,Active,PA1,Pennsylvania Dept. of Environmental Protection,R3,-5,49660," Youngstown-Warren-Boardman, OH-PA "
079e5c2085801abd,Mt Shasta,-122.318254,41.312688,1073,US,CA,Siskiyou,America/Los_Angeles,NA,NA,NA,NA,840060932002,PM2.5,0932,Active,SIS,Siskiyou County APCD,R9,-8,NA,NA
1be7a50bccbbf596,Harrah-Yakama Tribe,-120.54398,46.40857,334,US,WA,Yakima,America/Los_Angeles,NA,NA,NA,NA,530770017,PM2.5,0017,Inactive,WA1,Washington Department of Ecology,R10,-8,NA,NA
80e8ba20dbf1f4c5,WELLINGTON,-63.9869,46.4783,33.9,CA,PE,NA,America/Halifax,NA,NA,NA,NA,000020301,PM2.5,0301,Active,CN1,Environment Canada,CA,-4,NA,NA
24a8c9e6f7f8a295,Sault Ste Marie,-84.3094,46.5331,NA,CA,ON,NA,America/Toronto,NA,NA,NA,NA,000060709,PM2.5,0709,Active,ON1,Ontario Ministry of the Environment,CA,-5,NA,NA
d9c1855d700cc177,South Bend - First St,-123.7916,46.66186,NA,US,WA,Pacific,America/Los_Angeles,NA,NA,NA,NA,840530499991,PM2.5,0499,Inactive,WA1,Washington Department of Ecology,R10,-8,NA,NA
482c6a8aa74bb049,Syncrude UE1,-111.642,57.149,NA,CA,AB,NA,America/Edmonton,NA,NA,NA,NA,000090806,PM2.5,0806,Active,AB1,Alberta Environmental Monitoring and Reporting Agency (AEMERA),CA,-7,NA,NA
8f193ed6853d8cbf,Fort Chipewyan,-111.1764,58.7083,NA,CA,AB,NA,America/Edmonton,NA,NA,NA,NA,000091801,PM2.5,1801,Active,AB1,Alberta Environmental Monitoring and Reporting Agency (AEMERA),CA,-7,NA,NA
6f571674148067da,SETRPC Mauriceville 42 C642,-93.8731,30.18,NA,US,TX,Orange,America/Chicago,NA,NA,NA,NA,483611100,PM2.5,1100,Active,TX1,Texas Commission on Environmental Quality,R6,-6,13140," Beaumont-Port Arthur, TX "
f173494f847f816a,Mission Viejo,-117.675875,33.629991,122,US,CA,Orange,America/Los_Angeles,NA,NA,NA,NA,060592022,PM2.5,2022,Active,CA3,South Coast AQMD,R9,-8,31100," Los Angeles-Long Beach-Santa Ana, CA "
e9fbd3040bbaaea8,Indio - Jackson Street,-116.215394,33.708566,-1.8,US,CA,Riverside,America/Los_Angeles,NA,NA,NA,NA,060652002,PM2.5,2002,Active,CA3,South Coast AQMD,R9,-8,40140," Riverside-San Bernardino-Ontario, CA "
9afcd82a19794151,Pinehurst,-119.0189,36.6972,NA,US,CA,Fresno,America/Los_Angeles,NA,NA,NA,NA,840060199999,PM2.5,0199,Active,FS1,Forest Service,USEPA,-8,NA,NA
da1687e135831f63,Colusa - Sunrise Blvd.,-121.99887,39.18919,NA,US,CA,Colusa,America/Los_Angeles,NA,NA,NA,NA,060111002,PM2.5,1002,Active,CA8,California Air Resources Board,R9,-8,NA,NA
1ba44220cddfcc58,Edgewood,-76.2967,39.41,8.5,US,MD,Harford,America/New_York,NA,NA,NA,NA,240251001,PM2.5,1001,Active,MD1,Maryland Department of the Environment,R3,-5,12580," Baltimore-Towson, MD "
d9d80799d14a110e,Padonia,-76.631599,39.462002,119.6,US,MD,Baltimore,America/New_York,NA,NA,NA,NA,240051007,PM2.5,1007,Active,MD1,Maryland Department of the Environment,R3,-5,12580," Baltimore-Towson, MD "
5340420fc9144b79,White Plains,-73.7642,41.0522,NA,US,NY,Westchester,America/New_York,NA,NA,NA,NA,361192004,PM2.5,2004,Active,NY1,New York Dept. of Environmental Conservation,R2,-5,35620," New York-Northern New Jersey-Long Island, NY-NJ-PA "
2e4bb221e7b80d69,Chippewa,-81.9239,41.0604,NA,US,OH,Medina,America/New_York,NA,NA,NA,NA,391030004,PM2.5,0004,Active,OH1,Ohio EPA-DAPC,R5,-5,17460," Cleveland-Elyria-Mentor, OH "
db0da6d495c46a80,Ursulines,-72.5383,46.3458,NA,CA,QC,NA,America/Toronto,NA,NA,NA,NA,000050801,PM2.5,0801,Inactive,QC1,Canada-Quebec1,CA,-5,NA,NA
fd90e1c46d262b9b,Brainerd,-94.1433,46.3944,NA,US,MN,Crow Wing,America/Chicago,NA,NA,NA,NA,270353204,PM2.5,3204,Active,MN1,Minnesota Pollution Control Agency,R5,-6,14660," Brainerd, MN "
b1edc9fc7a58dc48,Clinton C403,-95.2575,29.7339,6.1,US,TX,Harris,America/Chicago,NA,NA,NA,NA,482011035,PM2.5,1035,Active,TX1,Texas Commission on Environmental Quality,R6,-6,26420," Houston-Sugar Land-Baytown, TX "
94e08e059ab77dfb,Baytown C148,-95.0311,29.7708,6.1,US,TX,Harris,America/Chicago,NA,NA,NA,NA,482010058,PM2.5,0058,Active,TX1,Texas Commission on Environmental Quality,R6,-6,26420," Houston-Sugar Land-Baytown, TX "
0e09027f57f65291,Trenton,-81.8536,33.7397,193.1,US,SC,Edgefield,America/New_York,NA,NA,NA,NA,450370001,PM2.5,0001,Active,SC1,South Carolina DHEC,R4,-5,12260," Augusta-Richmond County, GA-SC "
441f7a14944166be,Springville,-118.8108,36.1358,NA,US,CA,Tulare,America/Los_Angeles,NA,NA,NA,NA,840061079998,PM2.5,1079,Active,FS1,Forest Service,USEPA,-8,NA,NA
fc51e5651ea1a48b,Walnut Rec.,-115.091437,36.214465,NA,US,NV,Clark,America/Los_Angeles,NA,NA,NA,NA,320032003,PM2.5,2003,Active,NV1,Clark County Department of Environment and Sustainability ,R9,-8,NA,NA
df4a0ef8f325065c,Near Road,-85.7121,38.1935,NA,US,KY,Jefferson,America/Kentucky/Louisville,NA,NA,NA,NA,211110075,PM2.5,0075,Active,KY2,Louisville Metro Air Pollution Control District ,R4,-5,31140," Louisville, KY-IN "
040939f5f16c6ae6,Trenton,-74.763167,40.222421,14.9,US,NJ,Mercer,America/New_York,NA,NA,NA,NA,840340210008,PM2.5,0210,Active,NJ1,New Jersey Dept. of Environmental Protection,R2,-5,45940," Trenton-Ewing, NJ "
ded666be6d042f14,Lafayette-Greenbush St,-86.8525,40.4316,195.2,US,IN,Tippecanoe,America/Indiana/Indianapolis,NA,NA,NA,NA,181570008,PM2.5,0008,Active,IN4,Indiana Dept. of Environmental Management,R5,-5,29140," Lafayette, IN "
7598fe2c819dc00f,Rutgers University,-74.429436,40.462181,18.9,US,NJ,Middlesex,America/New_York,NA,NA,NA,NA,340230011,PM2.5,0011,Active,NJ1,New Jersey Dept. of Environmental Protection,R2,-5,35620," New York-Northern New Jersey-Long Island, NY-NJ-PA "
592fe9ccaaf39d3d,Klamath Falls - Peterson School,-121.731369,42.190296,1244.4,US,OR,Klamath,America/Los_Angeles,NA,NA,NA,NA,410350004,PM2.5,0004,Active,OR1,Oregon Dept. of Environmental Quality,R10,-8,28900," Klamath Falls, OR "
f80bf3cad3c13607,Rockford,-89.08917,42.267002,NA,US,IL,Winnebago,America/Chicago,NA,NA,NA,NA,840172010118,PM2.5,2010,Active,IL1,Illinois EPA,R5,-6,40420," Rockford, IL "
3fcbd0e1686e25df,TRINITY,-83.129431,42.295824,NA,US,MI,Wayne,America/Detroit,NA,NA,NA,NA,261630099,PM2.5,0099,Active,MI1,"Michigan Department of Environment, Great Lakes, and Energy",R5,-5,19820," Detroit-Warren-Livonia, MI "
e269334009167f11,WARE,-72.334396,42.298302,NA,US,MA,Hampshire,America/New_York,NA,NA,NA,NA,250154002,PM2.5,4002,Active,MA1,Massachusetts Dept. of Environmental Protection,R1,-5,44140," Springfield, MA "
3e5ef03d4d86b3ce,Windsor Downtown,-83.0433,42.3144,NA,CA,ON,NA,America/Toronto,NA,NA,NA,NA,000060204,PM2.5,0204,Active,ON1,Ontario Ministry of the Environment,CA,-5,NA,NA
e199be141b4187d7,Chelsea HP,-71.026111,42.387222,NA,US,MA,Suffolk,America/New_York,NA,NA,NA,NA,840250251004,PM2.5,0251,Active,MA1,Massachusetts Dept. of Environmental Protection,R1,-5,NA,NA
bcaad5cef5d9e0d4,Corvallis - Circle Blvd.,-123.2673,44.5884,NA,US,OR,Benton,America/Los_Angeles,NA,NA,NA,NA,410030013,PM2.5,0013,Active,OR1,Oregon Dept. of Environmental Quality,R10,-8,18700," Corvallis, OR "
e02eb69986c3f451,Lake Major,-63.4819,44.7197,NA,CA,NS,NA,America/Halifax,NA,NA,NA,NA,000030120,PM2.5,0120,Active,CN1,Environment Canada,CA,-4,NA,NA
b8c19e231575557f,Sheridan Mobile,-106.961763,44.80353,1156.3,US,WY,Sheridan,America/Denver,NA,NA,NA,NA,560330006,PM2.5,0006,Inactive,WY1,Wyoming Department of Environmental Quality,R8,-7,43260," Sheridan, WY "
4441317a2d474ab3,Bangor MSS,-68.772762,44.817398,9.8,US,ME,Penobscot,America/New_York,NA,NA,NA,NA,230190017,PM2.5,0017,Active,ME1,Maine Dept. of Environmental Protection,R1,-5,NA,NA
0e2ff7a2abcd3041,Morrisburg,-75.19,44.8897,NA,CA,NY,NA,America/Nipigon,NA,NA,NA,NA,000065701,PM2.5,5701,Inactive,ON1,Ontario Ministry of the Environment,CA,-5,NA,NA
b97f01d768bee09d,St. Paul - Westside,-93.067534,44.927318,NA,US,MN,Ramsey,America/Chicago,NA,NA,NA,NA,271231903,PM2.5,1903,Inactive,MN1,Minnesota Pollution Control Agency,R5,-6,33460," Minneapolis-St. Paul-Bloomington, MN-WI "
e3b0a7a3d812661e,Minneapolis - Lyndale,-93.277353,44.946341,NA,US,MN,Hennepin,America/Chicago,NA,NA,NA,NA,270531906,PM2.5,1906,Inactive,MN1,Minnesota Pollution Control Agency,R5,-6,NA,NA
ebb36131ab7b2b6f,Sipayik,-67.060476,44.963459,11.9,US,ME,Washington,America/New_York,NA,NA,NA,NA,840230290033,PM2.5,0290,Active,ME1,Maine Dept. of Environmental Protection,R1,-5,NA,NA
cec69fd52886ae58,Cornerbrook,-58.0556,48.9494,NA,CA,NF,NA,America/St_Johns,NA,NA,NA,NA,000010301,PM2.5,0301,Active,NL1,Newfoundland & Labrador DEC,CA,-4,NA,NA
1ade60d710f2c0eb,Tsawwassen,-123.082017,49.009869,52.2,CA,BC,NA,America/Vancouver,NA,NA,NA,NA,000100140,PM2.5,0140,Active,BC2,Metro Vancouver,CA,-8,NA,NA
6da8c01e15703a4a,Surrey East,-122.69417,49.13278,NA,CA,BC,NA,America/Vancouver,NA,NA,NA,NA,000100127,PM2.5,0127,Active,BC2,Metro Vancouver,CA,-8,NA,NA
b3e51f597414054e,Lethbridge,-112.8006,49.7164,NA,CA,AB,NA,America/Edmonton,NA,NA,NA,NA,000090502,PM2.5,0502,Active,AB1,Alberta Environmental Monitoring and Reporting Agency (AEMERA),CA,-7,NA,NA
4419097d8357a40b,Banning - South Hathaway Street,-116.858419,33.920758,NA,US,CA,Riverside,America/Los_Angeles,NA,NA,NA,NA,060650012,PM2.5,0012,Active,CA3,South Coast AQMD,R9,-8,40140," Riverside-San Bernardino-Ontario, CA "
6fe3d7fce7a1e54e,Houston Aldine C8,-95.3261,29.9011,18.3,US,TX,Harris,America/Chicago,NA,NA,NA,NA,482010024,PM2.5,0024,Active,TX1,Texas Commission on Environmental Quality,R6,-6,26420," Houston-Sugar Land-Baytown, TX "
2a1446583b14069d,Phoenix JLG Supersite,-112.095001,33.503601,315.7,US,AZ,Maricopa,America/Phoenix,NA,NA,NA,NA,040139997,PM2.5,9997,Active,AZ1,Arizona Department of Environmental Quality,R9,-7,38060," Phoenix-Mesa-Scottsdale, AZ "
3e5200d4942ba422,Lubbock C325,-101.8503,33.5906,963.8,US,TX,Lubbock,America/Chicago,NA,NA,NA,NA,483030325,PM2.5,0325,Inactive,TX1,Texas Commission on Environmental Quality,R6,-6,31180," Lubbock, TX "
3459cd969fabfd93,Joshua Tree NP - Cottonwood Canyon 2,-115.8201,33.7472,NA,US,CA,Riverside,America/Los_Angeles,NA,NA,NA,NA,060650010,PM2.5,0010,Active,NPS,National Park Service,USEPA,-8,NA,NA
b1438bcf547fe628,Mojave - 923 Poole St.,-118.14778,35.05045,NA,US,CA,Kern,America/Los_Angeles,NA,NA,NA,NA,060290011,PM2.5,0011,Inactive,CA8,California Air Resources Board,R9,-8,12540," Bakersfield, CA "
85b1b1a22c5193a2,Riverside,-85.2931,35.0508,NA,US,TN,Hamilton,America/New_York,NA,NA,NA,NA,470654002,PM2.5,4002,Active,TN5,Chattanooga-Hamilton County Air Pollution Control Bureau,R4,-5,16860," Chattanooga, TN-GA "
39957b60430ef3e9,Taylor Ranch,-106.695602,35.1539,1555.5,US,NM,Bernalillo,America/Denver,NA,NA,NA,NA,350010027,PM2.5,0027,Inactive,NM2,Albuquerque Environmental Health Department,R6,-7,10740," Albuquerque, NM "
2649a205fae59f06,Paul Meyer,-115.253333,36.106389,736.6,US,NV,Clark,America/Los_Angeles,NA,NA,NA,NA,320030043,PM2.5,0043,Active,NV1,Clark County Department of Environment and Sustainability ,R9,-8,29820," Las Vegas-Paradise, NV "
dd1ff7317e478afe,GC_MAD,-90.1397,38.7045,NA,US,IL,Madison,America/Chicago,NA,NA,NA,NA,171191007,PM2.5,1007,Active,IL1,Illinois EPA,R5,-6,41180," St. Louis, MO-IL "
f062b6465e90969e,Newark Firehouse,-74.192894,40.720989,26.8,US,NJ,Essex,America/New_York,NA,NA,NA,NA,340130003,PM2.5,0003,Active,NJ1,New Jersey Dept. of Environmental Protection,R2,-5,35620," New York-Northern New Jersey-Long Island, NY-NJ-PA "
7c74533d6c40b51f,Beaver Falls,-80.316704,40.747799,NA,US,PA,Beaver,America/New_York,NA,NA,NA,NA,420070014,PM2.5,0014,Active,PA1,Pennsylvania Dept. of Environmental Protection,R3,-5,38300," Pittsburgh, PA "
9cc294560420e678,Grants Pass - Parkside School,-123.348466,42.434149,280,US,OR,Josephine,America/Los_Angeles,NA,NA,NA,NA,410330114,PM2.5,0114,Active,OR1,Oregon Dept. of Environmental Quality,R10,-8,24420," Grants Pass, OR "
b91067ca17988a9d,PittsfieldES,-73.238776,42.453035,NA,US,MA,Berkshire,America/New_York,NA,NA,NA,NA,840250030008,PM2.5,0030,Active,MA1,Massachusetts Dept. of Environmental Protection,R1,-5,NA,NA
1fc0dc0a100ec921,Paul E-Sampler,-113.786817,42.607817,NA,US,ID,Minidoka,America/Boise,NA,NA,NA,NA,160671011,PM2.5,1011,Inactive,ID1,Idaho Department of Environmental Quality,R10,-7,NA,NA
2dbc53b17293c396,Neah Bay-Makah Tribe ,-124.5952,48.371799,1.8,US,WA,Clallam,America/Los_Angeles,NA,NA,NA,NA,530090014,PM2.5,0014,Inactive,WA1,Washington Department of Ecology,R10,-8,38820," Port Angeles, WA "
4ec23215ccceb107,Duncan Deykin Avenue,-123.646402,48.80255,20.1,CA,BC,NA,America/Vancouver,NA,NA,NA,NA,000104801,PM2.5,4801,Active,BC1,British Columbia Ministry of Environment,CA,-8,NA,NA
741791b31c442022,NCORE,-80.257608,26.054047,NA,US,FL,Broward,America/New_York,NA,NA,NA,NA,120110034,PM2.5,0034,Active,FL2,Broward County Natural Resources Division,R4,-5,33100," Miami-Fort Lauderdale-Miami Beach, FL "
7a45b8ed7f1bbbbd,Mission C43,-98.29107,26.226226,39.7,US,TX,Hidalgo,America/Chicago,NA,NA,NA,NA,482150043,PM2.5,0043,Active,TX1,Texas Commission on Environmental Quality,R6,-6,32580," McAllen-Edinburg-Mission, TX "
de3537ad7f33876a,Royal Palm Beach,-80.2339,26.7308,NA,US,FL,Palm Beach,America/New_York,NA,NA,NA,NA,120990009,PM2.5,0009,Inactive,FL1,Florida Dept. of Environmental Protection,R4,-5,33100," Miami-Fort Lauderdale-Miami Beach, FL "
ad87b6a4586db348,Corpus Christi Huisache C98,-97.4314,27.8042,6.1,US,TX,Nueces,America/Chicago,NA,NA,NA,NA,483550032,PM2.5,0032,Active,TX1,Texas Commission on Environmental Quality,R6,-6,18580," Corpus Christi, TX "
4edbbe7a16f848a1,Anderson Library,-82.647903,34.505798,237.9,US,SC,Anderson,America/New_York,NA,NA,NA,NA,450070004,PM2.5,0004,Inactive,SC1,South Carolina DHEC,R4,-5,11340," Anderson, SC "
7872ba52816cda84,JOHNSTON,-78.4622,35.59095,126.9,US,NC,Johnston,America/New_York,NA,NA,NA,NA,371010002,PM2.5,0002,Active,NC1,North Carolina DEQ - Division of Air Quality,R4,-5,39580," Raleigh-Cary, NC "
47ea83bdf45d24c1,BDED,-82.5844,35.6062,640.2,US,NC,Buncombe,America/New_York,NA,NA,NA,NA,370210034,PM2.5,0034,Active,NC1,North Carolina DEQ - Division of Air Quality,R4,-5,11700," Asheville, NC "
